[
  {
    "id": 1,
    "type": "police_station",
    "class": "POLICING FACILITY",
    "name": "COLLINGWOOD POLICE STATION",
    "status": "OPERATIONAL",
    "state": "VICTORIA",
    "suburb": "ABBOTSFORD",
    "postcode": "3067",
    "coordinates": {
      "lat": -37.80404328,
      "lng": 144.9935679
    },
    "address": "4 EDDY COURT",
    "gnaf": {
      "address_detail_pid": "GAVIC413094178",
      "confidence": 1.0,
      "postcode": "3067",
      "suburb": "ABBOTSFORD",
      "distance_to_gnaf_m": 0.0,
      "coordinates": {
        "lat": -37.80404328,
        "lng": 144.9935679
      }
    },
    "source": "GHAR_Datasets - Police Locations.csv"
  },
  {
    "id": 6,
    "type": "police_station",
    "class": "POLICING FACILITY",
    "name": "ALEXANDRA POLICE STATION",
    "status": "OPERATIONAL",
    "state": "VICTORIA",
    "suburb": "ALEXANDRA",
    "postcode": "3714",
    "coordinates": {
      "lat": -37.18863456,
      "lng": 145.7077709
    },
    "address": "33 GRANT STREET",
    "gnaf": {
      "address_detail_pid": "GAVIC424537965",
      "confidence": 1.0,
      "postcode": "3714",
      "suburb": "ALEXANDRA",
      "distance_to_gnaf_m": 0.0,
      "coordinates": {
        "lat": -37.18863455,
        "lng": 145.7077709
      }
    },
    "source": "GHAR_Datasets - Police Locations.csv"
  },
  {
    "id": 21,
    "type": "police_station",
    "class": "POLICING FACILITY",
    "name": "ALTONA NORTH POLICE STATION",
    "status": "OPERATIONAL",
    "state": "VICTORIA",
    "suburb": "ALTONA NORTH",
    "postcode": "3025",
    "coordinates": {
      "lat": -37.8360919,
      "lng": 144.8447248
    },
    "address": "72 COOPER AVENUE",
    "gnaf": {
      "address_detail_pid": "GAVIC420728108",
      "confidence": 1.0,
      "postcode": "3025",
      "suburb": "ALTONA NORTH",
      "distance_to_gnaf_m": 44.0,
      "coordinates": {
        "lat": -37.83571353,
        "lng": 144.8448849
      }
    },
    "source": "GHAR_Datasets - Police Locations.csv"
  },
  {
    "id": 26,
    "type": "police_station",
    "class": "POLICING FACILITY",
    "name": "ANGLESEA POLICE STATION",
    "status": "OPERATIONAL",
    "state": "VICTORIA",
    "suburb": "ANGLESEA",
    "postcode": "3230",
    "coordinates": {
      "lat": -38.40339864,
      "lng": 144.1922281
    },
    "address": "55 GREAT OCEAN ROAD",
    "gnaf": {
      "address_detail_pid": "GAVIC419961338",
      "confidence": 1.0,
      "postcode": "3230",
      "suburb": "ANGLESEA",
      "distance_to_gnaf_m": 0.0,
      "coordinates": {
        "lat": -38.40339864,
        "lng": 144.1922281
      }
    },
    "source": "GHAR_Datasets - Police Locations.csv"
  },
  {
    "id": 32,
    "type": "police_station",
    "class": "POLICING FACILITY",
    "name": "APOLLO BAY POLICE STATION",
    "status": "OPERATIONAL",
    "state": "VICTORIA",
    "suburb": "APOLLO BAY",
    "postcode": "3233",
    "coordinates": {
      "lat": -38.7596644,
      "lng": 143.6703816
    },
    "address": "31 NELSON STREET",
    "gnaf": {
      "address_detail_pid": "GAVIC423973401",
      "confidence": 1.0,
      "postcode": "3233",
      "suburb": "APOLLO BAY",
      "distance_to_gnaf_m": 0.0,
      "coordinates": {
        "lat": -38.7596644,
        "lng": 143.6703816
      }
    },
    "source": "GHAR_Datasets - Police Locations.csv"
  },
  {
    "id": 34,
    "type": "police_station",
    "class": "POLICING FACILITY",
    "name": "APSLEY POLICE STATION",
    "status": "OPERATIONAL",
    "state": "VICTORIA",
    "suburb": "APSLEY",
    "postcode": "3319",
    "coordinates": {
      "lat": -36.9670606,
      "lng": 141.0836185
    },
    "address": "17 SPLATT STREET",
    "gnaf": {
      "address_detail_pid": "GAVIC410750088",
      "confidence": 2.0,
      "postcode": "3319",
      "suburb": "APSLEY",
      "distance_to_gnaf_m": 0.0,
      "coordinates": {
        "lat": -36.9670606,
        "lng": 141.0836185
      }
    },
    "source": "GHAR_Datasets - Police Locations.csv"
  },
  {
    "id": 38,
    "type": "police_station",
    "class": "POLICING FACILITY",
    "name": "ARARAT POLICE STATION",
    "status": "OPERATIONAL",
    "state": "VICTORIA",
    "suburb": "ARARAT",
    "postcode": "3377",
    "coordinates": {
      "lat": -37.28424319,
      "lng": 142.9267224
    },
    "address": "1 LIGAR STREET",
    "gnaf": {
      "address_detail_pid": "GAVIC421247221",
      "confidence": 1.0,
      "postcode": "3377",
      "suburb": "ARARAT",
      "distance_to_gnaf_m": 0.0,
      "coordinates": {
        "lat": -37.28424319,
        "lng": 142.9267224
      }
    },
    "source": "GHAR_Datasets - Police Locations.csv"
  },
  {
    "id": 45,
    "type": "police_station",
    "class": "POLICING FACILITY",
    "name": "ASHBURTON POLICE STATION",
    "status": "OPERATIONAL",
    "state": "VICTORIA",
    "suburb": "ASHBURTON",
    "postcode": "3147",
    "coordinates": {
      "lat": -37.86287427,
      "lng": 145.0797097
    },
    "address": "1 Y STREET",
    "gnaf": {
      "address_detail_pid": "GAVIC419729327",
      "confidence": 2.0,
      "postcode": "3147",
      "suburb": "ASHBURTON",
      "distance_to_gnaf_m": 0.0,
      "coordinates": {
        "lat": -37.862874,
        "lng": 145.079709
      }
    },
    "source": "GHAR_Datasets - Police Locations.csv"
  },
  {
    "id": 48,
    "type": "police_station",
    "class": "POLICING FACILITY",
    "name": "AVOCA POLICE STATION",
    "status": "OPERATIONAL",
    "state": "VICTORIA",
    "suburb": "AVOCA",
    "postcode": "3467",
    "coordinates": {
      "lat": -37.08717014,
      "lng": 143.4740956
    },
    "address": "146 HIGH STREET",
    "gnaf": {
      "address_detail_pid": "GAVIC425278740",
      "confidence": 0.0,
      "postcode": "3467",
      "suburb": "AVOCA",
      "distance_to_gnaf_m": 0.0,
      "coordinates": {
        "lat": -37.08717014,
        "lng": 143.4740956
      }
    },
    "source": "GHAR_Datasets - Police Locations.csv"
  },
  {
    "id": 50,
    "type": "police_station",
    "class": "POLICING FACILITY",
    "name": "AVONDALE HEIGHTS POLICE STATION",
    "status": "OPERATIONAL",
    "state": "VICTORIA",
    "suburb": "AVONDALE HEIGHTS",
    "postcode": "3034",
    "coordinates": {
      "lat": -37.75572979,
      "lng": 144.859441
    },
    "address": "162 MILITARY ROAD",
    "gnaf": {
      "address_detail_pid": "GAVIC419726700",
      "confidence": 2.0,
      "postcode": "3034",
      "suburb": "AVONDALE HEIGHTS",
      "distance_to_gnaf_m": 0.0,
      "coordinates": {
        "lat": -37.755729,
        "lng": 144.85944
      }
    },
    "source": "GHAR_Datasets - Police Locations.csv"
  },
  {
    "id": 52,
    "type": "police_station",
    "class": "POLICING FACILITY",
    "name": "AXEDALE POLICE STATION",
    "status": "OPERATIONAL",
    "state": "VICTORIA",
    "suburb": "AXEDALE",
    "postcode": "3551",
    "coordinates": {
      "lat": -36.78699283,
      "lng": 144.5015679
    },
    "address": "86 MCIVOR HIGHWAY",
    "gnaf": {
      "address_detail_pid": "GAVIC421311035",
      "confidence": 2.0,
      "postcode": "3551",
      "suburb": "AXEDALE",
      "distance_to_gnaf_m": 0.0,
      "coordinates": {
        "lat": -36.78699283,
        "lng": 144.5015679
      }
    },
    "source": "GHAR_Datasets - Police Locations.csv"
  },
  {
    "id": 57,
    "type": "police_station",
    "class": "POLICING FACILITY",
    "name": "BACCHUS MARSH POLICE STATION",
    "status": "OPERATIONAL",
    "state": "VICTORIA",
    "suburb": "BACCHUS MARSH",
    "postcode": "3340",
    "coordinates": {
      "lat": -37.67578807,
      "lng": 144.4360205
    },
    "address": "119 MAIN STREET",
    "gnaf": {
      "address_detail_pid": "GAVIC421637064",
      "confidence": 1.0,
      "postcode": "3340",
      "suburb": "BACCHUS MARSH",
      "distance_to_gnaf_m": 0.0,
      "coordinates": {
        "lat": -37.67578806,
        "lng": 144.4360205
      }
    },
    "source": "GHAR_Datasets - Police Locations.csv"
  },
  {
    "id": 61,
    "type": "police_station",
    "class": "POLICING FACILITY",
    "name": "BAIRNSDALE POLICE STATION",
    "status": "OPERATIONAL",
    "state": "VICTORIA",
    "suburb": "BAIRNSDALE",
    "postcode": "3875",
    "coordinates": {
      "lat": -37.82586394,
      "lng": 147.635958
    },
    "address": "45 MAIN STREET",
    "gnaf": {
      "address_detail_pid": "GAVIC424450141",
      "confidence": 2.0,
      "postcode": "3875",
      "suburb": "BAIRNSDALE",
      "distance_to_gnaf_m": 0.0,
      "coordinates": {
        "lat": -37.82586394,
        "lng": 147.635958
      }
    },
    "source": "GHAR_Datasets - Police Locations.csv"
  },
  {
    "id": 68,
    "type": "police_station",
    "class": "POLICING FACILITY",
    "name": "BALLAN POLICE STATION",
    "status": "OPERATIONAL",
    "state": "VICTORIA",
    "suburb": "BALLAN",
    "postcode": "3342",
    "coordinates": {
      "lat": -37.59995117,
      "lng": 144.2208892
    },
    "address": "174-176 INGLIS STREET",
    "gnaf": {
      "address_detail_pid": "GAVIC423829408",
      "confidence": 1.0,
      "postcode": "3342",
      "suburb": "BALLAN",
      "distance_to_gnaf_m": 0.0,
      "coordinates": {
        "lat": -37.59995116,
        "lng": 144.2208892
      }
    },
    "source": "GHAR_Datasets - Police Locations.csv"
  },
  {
    "id": 69,
    "type": "police_station",
    "class": "POLICING FACILITY",
    "name": "BALLARAT POLICE STATION",
    "status": "OPERATIONAL",
    "state": "VICTORIA",
    "suburb": "BALLARAT CENTRAL",
    "postcode": "3350",
    "coordinates": {
      "lat": -37.56418627,
      "lng": 143.8591192
    },
    "address": "20 DANA STREET",
    "gnaf": {
      "address_detail_pid": "GAVIC425225026",
      "confidence": 0.0,
      "postcode": "3350",
      "suburb": "BALLARAT CENTRAL",
      "distance_to_gnaf_m": 45.0,
      "coordinates": {
        "lat": -37.56420628,
        "lng": 143.8596245
      }
    },
    "source": "GHAR_Datasets - Police Locations.csv"
  },
  {
    "id": 76,
    "type": "police_station",
    "class": "POLICING FACILITY",
    "name": "BALMORAL POLICE STATION",
    "status": "OPERATIONAL",
    "state": "VICTORIA",
    "suburb": "BALMORAL",
    "postcode": "3407",
    "coordinates": {
      "lat": -37.25221014,
      "lng": 141.8323207
    },
    "address": "78 COLERAINE ROAD",
    "gnaf": {
      "address_detail_pid": "GAVIC424746463",
      "confidence": 2.0,
      "postcode": "3407",
      "suburb": "BALMORAL",
      "distance_to_gnaf_m": 0.0,
      "coordinates": {
        "lat": -37.25221014,
        "lng": 141.8323207
      }
    },
    "source": "GHAR_Datasets - Police Locations.csv"
  },
  {
    "id": 84,
    "type": "police_station",
    "class": "POLICING FACILITY",
    "name": "BANNOCKBURN POLICE STATION",
    "status": "OPERATIONAL",
    "state": "VICTORIA",
    "suburb": "BANNOCKBURN",
    "postcode": "3331",
    "coordinates": {
      "lat": -38.04993326,
      "lng": 144.168415
    },
    "address": "51 HIGH STREET",
    "gnaf": {
      "address_detail_pid": "GAVIC423706438",
      "confidence": 1.0,
      "postcode": "3331",
      "suburb": "BANNOCKBURN",
      "distance_to_gnaf_m": 0.0,
      "coordinates": {
        "lat": -38.04993325,
        "lng": 144.168415
      }
    },
    "source": "GHAR_Datasets - Police Locations.csv"
  },
  {
    "id": 108,
    "type": "police_station",
    "class": "POLICING FACILITY",
    "name": "BEAUFORT POLICE STATION",
    "status": "OPERATIONAL",
    "state": "VICTORIA",
    "suburb": "BEAUFORT",
    "postcode": "3373",
    "coordinates": {
      "lat": -37.43148457,
      "lng": 143.3810581
    },
    "address": "11 LIVINGSTONE STREET",
    "gnaf": {
      "address_detail_pid": "GAVIC420901772",
      "confidence": 1.0,
      "postcode": "3373",
      "suburb": "BEAUFORT",
      "distance_to_gnaf_m": 0.0,
      "coordinates": {
        "lat": -37.43148457,
        "lng": 143.3810581
      }
    },
    "source": "GHAR_Datasets - Police Locations.csv"
  },
  {
    "id": 113,
    "type": "police_station",
    "class": "POLICING FACILITY",
    "name": "BEEAC POLICE STATION",
    "status": "OPERATIONAL",
    "state": "VICTORIA",
    "suburb": "BEEAC",
    "postcode": "3251",
    "coordinates": {
      "lat": -38.19530616,
      "lng": 143.6400596
    },
    "address": "6 COULSTON STREET",
    "gnaf": {
      "address_detail_pid": "GAVIC424746874",
      "confidence": 2.0,
      "postcode": "3251",
      "suburb": "BEEAC",
      "distance_to_gnaf_m": 0.0,
      "coordinates": {
        "lat": -38.19530616,
        "lng": 143.6400596
      }
    },
    "source": "GHAR_Datasets - Police Locations.csv"
  },
  {
    "id": 115,
    "type": "police_station",
    "class": "POLICING FACILITY",
    "name": "BEECHWORTH POLICE STATION",
    "status": "OPERATIONAL",
    "state": "VICTORIA",
    "suburb": "BEECHWORTH",
    "postcode": "3747",
    "coordinates": {
      "lat": -36.3583719,
      "lng": 146.6888702
    },
    "address": "102 FORD STREET",
    "gnaf": {
      "address_detail_pid": "GAVIC420258032",
      "confidence": 2.0,
      "postcode": "3747",
      "suburb": "BEECHWORTH",
      "distance_to_gnaf_m": 0.0,
      "coordinates": {
        "lat": -36.3583719,
        "lng": 146.6888702
      }
    },
    "source": "GHAR_Datasets - Police Locations.csv"
  },
  {
    "id": 118,
    "type": "police_station",
    "class": "POLICING FACILITY",
    "name": "BELGRAVE POLICE STATION",
    "status": "OPERATIONAL",
    "state": "VICTORIA",
    "suburb": "BELGRAVE",
    "postcode": "3160",
    "coordinates": {
      "lat": -37.90808937,
      "lng": 145.3546177
    },
    "address": "2 ENA ROAD",
    "gnaf": {
      "address_detail_pid": "GAVIC410844880",
      "confidence": 2.0,
      "postcode": "3160",
      "suburb": "BELGRAVE",
      "distance_to_gnaf_m": 0.0,
      "coordinates": {
        "lat": -37.90808936,
        "lng": 145.3546177
      }
    },
    "source": "GHAR_Datasets - Police Locations.csv"
  },
  {
    "id": 127,
    "type": "police_station",
    "class": "POLICING FACILITY",
    "name": "BENALLA POLICE STATION",
    "status": "OPERATIONAL",
    "state": "VICTORIA",
    "suburb": "BENALLA",
    "postcode": "3672",
    "coordinates": {
      "lat": -36.55560359,
      "lng": 145.975298
    },
    "address": "17 BRIDGE STREET",
    "gnaf": {
      "address_detail_pid": "GAVIC423935362",
      "confidence": 0.0,
      "postcode": "3672",
      "suburb": "BENALLA",
      "distance_to_gnaf_m": 36.0,
      "coordinates": {
        "lat": -36.5555183,
        "lng": 145.9756801
      }
    },
    "source": "GHAR_Datasets - Police Locations.csv"
  },
  {
    "id": 132,
    "type": "police_station",
    "class": "POLICING FACILITY",
    "name": "BENDIGO POLICE STATION",
    "status": "OPERATIONAL",
    "state": "VICTORIA",
    "suburb": "BENDIGO",
    "postcode": "3550",
    "coordinates": {
      "lat": -36.76698964,
      "lng": 144.2669894
    },
    "address": "221 CALDER HIGHWAY",
    "gnaf": {
      "address_detail_pid": "GAVIC410877954",
      "confidence": 0.0,
      "postcode": "3550",
      "suburb": "BENDIGO",
      "distance_to_gnaf_m": 0.0,
      "coordinates": {
        "lat": -36.76698964,
        "lng": 144.2669894
      }
    },
    "source": "GHAR_Datasets - Police Locations.csv"
  },
  {
    "id": 137,
    "type": "police_station",
    "class": "POLICING FACILITY",
    "name": "BENDOC POLICE STATION",
    "status": "OPERATIONAL",
    "state": "VICTORIA",
    "suburb": "BENDOC",
    "postcode": "3888",
    "coordinates": {
      "lat": -37.14707241,
      "lng": 148.8849125
    },
    "address": "24 DOWLING STREET",
    "gnaf": {
      "address_detail_pid": "GAVIC424489800",
      "confidence": 1.0,
      "postcode": "3888",
      "suburb": "BENDOC",
      "distance_to_gnaf_m": 8.0,
      "coordinates": {
        "lat": -37.14701131,
        "lng": 148.8848571
      }
    },
    "source": "GHAR_Datasets - Police Locations.csv"
  },
  {
    "id": 150,
    "type": "police_station",
    "class": "POLICING FACILITY",
    "name": "BETHANGA POLICE STATION",
    "status": "OPERATIONAL",
    "state": "VICTORIA",
    "suburb": "BETHANGA",
    "postcode": "3691",
    "coordinates": {
      "lat": -36.12547928,
      "lng": 147.0993258
    },
    "address": "1 BETHANGA BAY ROAD",
    "gnaf": {
      "address_detail_pid": "GAVIC422128362",
      "confidence": 2.0,
      "postcode": "3691",
      "suburb": "BETHANGA",
      "distance_to_gnaf_m": 19.0,
      "coordinates": {
        "lat": -36.1256243,
        "lng": 147.0992089
      }
    },
    "source": "GHAR_Datasets - Police Locations.csv"
  },
  {
    "id": 151,
    "type": "police_station",
    "class": "POLICING FACILITY",
    "name": "BEULAH POLICE STATION",
    "status": "OPERATIONAL",
    "state": "VICTORIA",
    "suburb": "BEULAH",
    "postcode": "3395",
    "coordinates": {
      "lat": -35.94324016,
      "lng": 142.4194994
    },
    "address": "21-23 PHILLIPS STREET",
    "gnaf": {
      "address_detail_pid": "GAVIC424033555",
      "confidence": 1.0,
      "postcode": "3395",
      "suburb": "BEULAH",
      "distance_to_gnaf_m": 36.0,
      "coordinates": {
        "lat": -35.94299241,
        "lng": 142.4192507
      }
    },
    "source": "GHAR_Datasets - Police Locations.csv"
  },
  {
    "id": 158,
    "type": "police_station",
    "class": "POLICING FACILITY",
    "name": "BIRCHIP POLICE STATION",
    "status": "OPERATIONAL",
    "state": "VICTORIA",
    "suburb": "BIRCHIP",
    "postcode": "3483",
    "coordinates": {
      "lat": -35.97980014,
      "lng": 142.9173223
    },
    "address": "95 CUMMING AVENUE",
    "gnaf": {
      "address_detail_pid": "GAVIC424444389",
      "confidence": 2.0,
      "postcode": "3483",
      "suburb": "BIRCHIP",
      "distance_to_gnaf_m": 33.0,
      "coordinates": {
        "lat": -35.97984721,
        "lng": 142.9176823
      }
    },
    "source": "GHAR_Datasets - Police Locations.csv"
  },
  {
    "id": 160,
    "type": "police_station",
    "class": "POLICING FACILITY",
    "name": "BIRREGURRA POLICE STATION",
    "status": "OPERATIONAL",
    "state": "VICTORIA",
    "suburb": "BIRREGURRA",
    "postcode": "3242",
    "coordinates": {
      "lat": -38.33629848,
      "lng": 143.782711
    },
    "address": "89 MAIN STREET",
    "gnaf": {
      "address_detail_pid": "GAVIC420127116",
      "confidence": 2.0,
      "postcode": "3242",
      "suburb": "BIRREGURRA",
      "distance_to_gnaf_m": 0.0,
      "coordinates": {
        "lat": -38.33629848,
        "lng": 143.782711
      }
    },
    "source": "GHAR_Datasets - Police Locations.csv"
  },
  {
    "id": 171,
    "type": "police_station",
    "class": "POLICING FACILITY",
    "name": "BOOLARRA POLICE STATION",
    "status": "OPERATIONAL",
    "state": "VICTORIA",
    "suburb": "BOOLARRA",
    "postcode": "3870",
    "coordinates": {
      "lat": -38.38044265,
      "lng": 146.2723207
    },
    "address": "29 TARWIN STREET",
    "gnaf": {
      "address_detail_pid": "GAVIC419961696",
      "confidence": 1.0,
      "postcode": "3870",
      "suburb": "BOOLARRA",
      "distance_to_gnaf_m": 0.0,
      "coordinates": {
        "lat": -38.38044265,
        "lng": 146.2723207
      }
    },
    "source": "GHAR_Datasets - Police Locations.csv"
  },
  {
    "id": 177,
    "type": "police_station",
    "class": "POLICING FACILITY",
    "name": "BOORT POLICE STATION",
    "status": "OPERATIONAL",
    "state": "VICTORIA",
    "suburb": "BOORT",
    "postcode": "3537",
    "coordinates": {
      "lat": -36.11606286,
      "lng": 143.7234092
    },
    "address": "4 STATION STREET",
    "gnaf": {
      "address_detail_pid": "GAVIC425690072",
      "confidence": 0.0,
      "postcode": "3537",
      "suburb": "BOORT",
      "distance_to_gnaf_m": 0.0,
      "coordinates": {
        "lat": -36.11606286,
        "lng": 143.7234092
      }
    },
    "source": "GHAR_Datasets - Police Locations.csv"
  },
  {
    "id": 180,
    "type": "police_station",
    "class": "POLICING FACILITY",
    "name": "BORONIA POLICE STATION",
    "status": "OPERATIONAL",
    "state": "VICTORIA",
    "suburb": "BORONIA",
    "postcode": "3155",
    "coordinates": {
      "lat": -37.85993456,
      "lng": 145.2854877
    },
    "address": "259 DORSET ROAD",
    "gnaf": {
      "address_detail_pid": "GAVIC413637352",
      "confidence": 1.0,
      "postcode": "3155",
      "suburb": "BORONIA",
      "distance_to_gnaf_m": 0.0,
      "coordinates": {
        "lat": -37.85993455,
        "lng": 145.2854877
      }
    },
    "source": "GHAR_Datasets - Police Locations.csv"
  },
  {
    "id": 187,
    "type": "police_station",
    "class": "POLICING FACILITY",
    "name": "BOX HILL POLICE STATION",
    "status": "OPERATIONAL",
    "state": "VICTORIA",
    "suburb": "BOX HILL",
    "postcode": "3128",
    "coordinates": {
      "lat": -37.81808498,
      "lng": 145.1272983
    },
    "address": "1 KANGERONG ROAD",
    "gnaf": {
      "address_detail_pid": "GAVIC413396565",
      "confidence": 2.0,
      "postcode": "3128",
      "suburb": "BOX HILL",
      "distance_to_gnaf_m": 68.0,
      "coordinates": {
        "lat": -37.81747666,
        "lng": 145.1274248
      }
    },
    "source": "GHAR_Datasets - Police Locations.csv"
  },
  {
    "id": 193,
    "type": "police_station",
    "class": "POLICING FACILITY",
    "name": "BRANXHOLME POLICE STATION",
    "status": "OPERATIONAL",
    "state": "VICTORIA",
    "suburb": "BRANXHOLME",
    "postcode": "3302",
    "coordinates": {
      "lat": -37.85841915,
      "lng": 141.7987545
    },
    "address": "87-89 MONROE STREET",
    "gnaf": {
      "address_detail_pid": "GAVIC424585730",
      "confidence": 1.0,
      "postcode": "3302",
      "suburb": "BRANXHOLME",
      "distance_to_gnaf_m": 0.0,
      "coordinates": {
        "lat": -37.85841915,
        "lng": 141.7987545
      }
    },
    "source": "GHAR_Datasets - Police Locations.csv"
  },
  {
    "id": 196,
    "type": "police_station",
    "class": "POLICING FACILITY",
    "name": "BRIAGOLONG POLICE STATION",
    "status": "OPERATIONAL",
    "state": "VICTORIA",
    "suburb": "BRIAGOLONG",
    "postcode": "3860",
    "coordinates": {
      "lat": -37.84343327,
      "lng": 147.069628
    },
    "address": "19-21 AVON STREET",
    "gnaf": {
      "address_detail_pid": "GAVIC425609063",
      "confidence": 0.0,
      "postcode": "3860",
      "suburb": "BRIAGOLONG",
      "distance_to_gnaf_m": 0.0,
      "coordinates": {
        "lat": -37.84343327,
        "lng": 147.069628
      }
    },
    "source": "GHAR_Datasets - Police Locations.csv"
  },
  {
    "id": 198,
    "type": "police_station",
    "class": "POLICING FACILITY",
    "name": "BRIDGEWATER POLICE STATION",
    "status": "OPERATIONAL",
    "state": "VICTORIA",
    "suburb": "BRIDGEWATER ON LODDON",
    "postcode": "3516",
    "coordinates": {
      "lat": -36.60170372,
      "lng": 143.9400086
    },
    "address": "38 PARK STREET",
    "gnaf": {
      "address_detail_pid": "GAVIC720579618",
      "confidence": 1.0,
      "postcode": "3516",
      "suburb": "BRIDGEWATER ON LODDON",
      "distance_to_gnaf_m": 0.0,
      "coordinates": {
        "lat": -36.60170372,
        "lng": 143.9400086
      }
    },
    "source": "GHAR_Datasets - Police Locations.csv"
  },
  {
    "id": 199,
    "type": "police_station",
    "class": "POLICING FACILITY",
    "name": "BRIGHT POLICE STATION",
    "status": "OPERATIONAL",
    "state": "VICTORIA",
    "suburb": "BRIGHT",
    "postcode": "3741",
    "coordinates": {
      "lat": -36.73179425,
      "lng": 146.9620495
    },
    "address": "7 PARK STREET",
    "gnaf": {
      "address_detail_pid": "GAVIC420915118",
      "confidence": 0.0,
      "postcode": "3741",
      "suburb": "BRIGHT",
      "distance_to_gnaf_m": 0.0,
      "coordinates": {
        "lat": -36.73179425,
        "lng": 146.9620495
      }
    },
    "source": "GHAR_Datasets - Police Locations.csv"
  },
  {
    "id": 205,
    "type": "police_station",
    "class": "POLICING FACILITY",
    "name": "BROADFORD POLICE STATION",
    "status": "OPERATIONAL",
    "state": "VICTORIA",
    "suburb": "BROADFORD",
    "postcode": "3658",
    "coordinates": {
      "lat": -37.20340463,
      "lng": 145.0554234
    },
    "address": "156 HIGH STREET",
    "gnaf": {
      "address_detail_pid": "GAVIC421814544",
      "confidence": 2.0,
      "postcode": "3658",
      "suburb": "BROADFORD",
      "distance_to_gnaf_m": 3.0,
      "coordinates": {
        "lat": -37.2034277,
        "lng": 145.0554097
      }
    },
    "source": "GHAR_Datasets - Police Locations.csv"
  },
  {
    "id": 209,
    "type": "police_station",
    "class": "POLICING FACILITY",
    "name": "BROADMEADOWS POLICE STATION",
    "status": "OPERATIONAL",
    "state": "VICTORIA",
    "suburb": "BROADMEADOWS",
    "postcode": "3047",
    "coordinates": {
      "lat": -37.683223,
      "lng": 144.9168746
    },
    "address": "15 DIMBOOLA ROAD",
    "gnaf": {
      "address_detail_pid": "GAVIC421873736",
      "confidence": 2.0,
      "postcode": "3047",
      "suburb": "BROADMEADOWS",
      "distance_to_gnaf_m": 0.0,
      "coordinates": {
        "lat": -37.683223,
        "lng": 144.916874
      }
    },
    "source": "GHAR_Datasets - Police Locations.csv"
  },
  {
    "id": 213,
    "type": "police_station",
    "class": "POLICING FACILITY",
    "name": "BRUNSWICK POLICE STATION",
    "status": "OPERATIONAL",
    "state": "VICTORIA",
    "suburb": "BRUNSWICK",
    "postcode": "3056",
    "coordinates": {
      "lat": -37.76281274,
      "lng": 144.9630686
    },
    "address": "630 SYDNEY ROAD",
    "gnaf": {
      "address_detail_pid": "GAVIC420419088",
      "confidence": 1.0,
      "postcode": "3056",
      "suburb": "BRUNSWICK",
      "distance_to_gnaf_m": 0.0,
      "coordinates": {
        "lat": -37.762812,
        "lng": 144.963068
      }
    },
    "source": "GHAR_Datasets - Police Locations.csv"
  },
  {
    "id": 214,
    "type": "police_station",
    "class": "POLICING FACILITY",
    "name": "BRUTHEN POLICE STATION",
    "status": "OPERATIONAL",
    "state": "VICTORIA",
    "suburb": "BRUTHEN",
    "postcode": "3885",
    "coordinates": {
      "lat": -37.70751283,
      "lng": 147.8311191
    },
    "address": "45 MAIN STREET",
    "gnaf": {
      "address_detail_pid": "GAVIC410995573",
      "confidence": 2.0,
      "postcode": "3885",
      "suburb": "BRUTHEN",
      "distance_to_gnaf_m": 0.0,
      "coordinates": {
        "lat": -37.70751283,
        "lng": 147.8311191
      }
    },
    "source": "GHAR_Datasets - Police Locations.csv"
  },
  {
    "id": 220,
    "type": "police_station",
    "class": "POLICING FACILITY",
    "name": "BUCHAN POLICE STATION",
    "status": "OPERATIONAL",
    "state": "VICTORIA",
    "suburb": "BUCHAN",
    "postcode": "3885",
    "coordinates": {
      "lat": -37.49987147,
      "lng": 148.1713102
    },
    "address": "39 MAIN ROAD",
    "gnaf": {
      "address_detail_pid": "GAVIC420572417",
      "confidence": 2.0,
      "postcode": "3885",
      "suburb": "BUCHAN",
      "distance_to_gnaf_m": 6.0,
      "coordinates": {
        "lat": -37.49992207,
        "lng": 148.1713194
      }
    },
    "source": "GHAR_Datasets - Police Locations.csv"
  },
  {
    "id": 232,
    "type": "police_station",
    "class": "POLICING FACILITY",
    "name": "BUNINYONG POLICE STATION",
    "status": "OPERATIONAL",
    "state": "VICTORIA",
    "suburb": "BUNINYONG",
    "postcode": "3357",
    "coordinates": {
      "lat": -37.65155726,
      "lng": 143.8846456
    },
    "address": "310 SCOTT STREET",
    "gnaf": {
      "address_detail_pid": "GAVIC424555934",
      "confidence": 0.0,
      "postcode": "3357",
      "suburb": "BUNINYONG",
      "distance_to_gnaf_m": 0.0,
      "coordinates": {
        "lat": -37.65155726,
        "lng": 143.8846456
      }
    },
    "source": "GHAR_Datasets - Police Locations.csv"
  },
  {
    "id": 234,
    "type": "police_station",
    "class": "POLICING FACILITY",
    "name": "BUNYIP POLICE STATION",
    "status": "OPERATIONAL",
    "state": "VICTORIA",
    "suburb": "BUNYIP",
    "postcode": "3815",
    "coordinates": {
      "lat": -38.09751502,
      "lng": 145.7177998
    },
    "address": "4 PEARSON STREET",
    "gnaf": {
      "address_detail_pid": "GAVIC420331856",
      "confidence": 2.0,
      "postcode": "3815",
      "suburb": "BUNYIP",
      "distance_to_gnaf_m": 0.0,
      "coordinates": {
        "lat": -38.097515,
        "lng": 145.717799
      }
    },
    "source": "GHAR_Datasets - Police Locations.csv"
  },
  {
    "id": 239,
    "type": "police_station",
    "class": "POLICING FACILITY",
    "name": "BURWOOD POLICE STATION",
    "status": "OPERATIONAL",
    "state": "VICTORIA",
    "suburb": "BURWOOD",
    "postcode": "3125",
    "coordinates": {
      "lat": -37.8508838,
      "lng": 145.0981778
    },
    "address": "64 BURWOOD HIGHWAY",
    "gnaf": {
      "address_detail_pid": "GAVIC421919922",
      "confidence": 1.0,
      "postcode": "3125",
      "suburb": "BURWOOD",
      "distance_to_gnaf_m": 0.0,
      "coordinates": {
        "lat": -37.850883,
        "lng": 145.098177
      }
    },
    "source": "GHAR_Datasets - Police Locations.csv"
  },
  {
    "id": 249,
    "type": "police_station",
    "class": "POLICING FACILITY",
    "name": "CAMBERWELL POLICE STATION",
    "status": "OPERATIONAL",
    "state": "VICTORIA",
    "suburb": "CAMBERWELL",
    "postcode": "3124",
    "coordinates": {
      "lat": -37.83321537,
      "lng": 145.0592262
    },
    "address": "311-315 CAMBERWELL ROAD",
    "gnaf": {
      "address_detail_pid": "GAVIC421326604",
      "confidence": 1.0,
      "postcode": "3124",
      "suburb": "CAMBERWELL",
      "distance_to_gnaf_m": 0.0,
      "coordinates": {
        "lat": -37.83321536,
        "lng": 145.0592262
      }
    },
    "source": "GHAR_Datasets - Police Locations.csv"
  },
  {
    "id": 257,
    "type": "police_station",
    "class": "POLICING FACILITY",
    "name": "CAMPERDOWN POLICE STATION",
    "status": "OPERATIONAL",
    "state": "VICTORIA",
    "suburb": "CAMPERDOWN",
    "postcode": "3260",
    "coordinates": {
      "lat": -38.2305167,
      "lng": 143.1460954
    },
    "address": "49 FERGUSSON STREET",
    "gnaf": {
      "address_detail_pid": "GAVIC411041463",
      "confidence": 1.0,
      "postcode": "3260",
      "suburb": "CAMPERDOWN",
      "distance_to_gnaf_m": 52.0,
      "coordinates": {
        "lat": -38.2308228,
        "lng": 143.1465418
      }
    },
    "source": "GHAR_Datasets - Police Locations.csv"
  },
  {
    "id": 264,
    "type": "police_station",
    "class": "POLICING FACILITY",
    "name": "CANN RIVER POLICE STATION",
    "status": "OPERATIONAL",
    "state": "VICTORIA",
    "suburb": "CANN RIVER",
    "postcode": "3890",
    "coordinates": {
      "lat": -37.56472879,
      "lng": 149.1522328
    },
    "address": "6 MONARO HIGHWAY",
    "gnaf": {
      "address_detail_pid": "GAVIC420883497",
      "confidence": 2.0,
      "postcode": "3890",
      "suburb": "CANN RIVER",
      "distance_to_gnaf_m": 26.0,
      "coordinates": {
        "lat": -37.5646349,
        "lng": 149.1519593
      }
    },
    "source": "GHAR_Datasets - Police Locations.csv"
  },
  {
    "id": 283,
    "type": "police_station",
    "class": "POLICING FACILITY",
    "name": "CAROLINE SPRINGS POLICE STATION",
    "status": "OPERATIONAL",
    "state": "VICTORIA",
    "suburb": "CAROLINE SPRINGS",
    "postcode": "3023",
    "coordinates": {
      "lat": -37.73072003,
      "lng": 144.7412241
    },
    "address": "221-223 CAROLINE SPRINGS BOULEVARD",
    "gnaf": {
      "address_detail_pid": "GAVIC424060661",
      "confidence": 1.0,
      "postcode": "3023",
      "suburb": "CAROLINE SPRINGS",
      "distance_to_gnaf_m": 61.0,
      "coordinates": {
        "lat": -37.73050085,
        "lng": 144.7405931
      }
    },
    "source": "GHAR_Datasets - Police Locations.csv"
  },
  {
    "id": 290,
    "type": "police_station",
    "class": "POLICING FACILITY",
    "name": "CASTERTON POLICE STATION",
    "status": "OPERATIONAL",
    "state": "VICTORIA",
    "suburb": "CASTERTON",
    "postcode": "3311",
    "coordinates": {
      "lat": -37.58532452,
      "lng": 141.4060271
    },
    "address": "2 JACKSON STREET",
    "gnaf": {
      "address_detail_pid": "GAVIC414143654",
      "confidence": 1.0,
      "postcode": "3311",
      "suburb": "CASTERTON",
      "distance_to_gnaf_m": 0.0,
      "coordinates": {
        "lat": -37.58532451,
        "lng": 141.4060271
      }
    },
    "source": "GHAR_Datasets - Police Locations.csv"
  },
  {
    "id": 297,
    "type": "police_station",
    "class": "POLICING FACILITY",
    "name": "CASTLEMAINE POLICE STATION",
    "status": "OPERATIONAL",
    "state": "VICTORIA",
    "suburb": "CASTLEMAINE",
    "postcode": "3450",
    "coordinates": {
      "lat": -37.0637305,
      "lng": 144.2193655
    },
    "address": "32 TEMPLETON STREET",
    "gnaf": {
      "address_detail_pid": "GAVIC421496005",
      "confidence": 2.0,
      "postcode": "3450",
      "suburb": "CASTLEMAINE",
      "distance_to_gnaf_m": 0.0,
      "coordinates": {
        "lat": -37.06373061,
        "lng": 144.2193656
      }
    },
    "source": "GHAR_Datasets - Police Locations.csv"
  },
  {
    "id": 298,
    "type": "police_station",
    "class": "POLICING FACILITY",
    "name": "CAULFIELD POLICE STATION",
    "status": "OPERATIONAL",
    "state": "VICTORIA",
    "suburb": "CAULFIELD",
    "postcode": "3162",
    "coordinates": {
      "lat": -37.88129358,
      "lng": 145.0232713
    },
    "address": "285-289 HAWTHORN ROAD",
    "gnaf": {
      "address_detail_pid": "GAVIC420310069",
      "confidence": 1.0,
      "postcode": "3162",
      "suburb": "CAULFIELD",
      "distance_to_gnaf_m": 29.0,
      "coordinates": {
        "lat": -37.8810353,
        "lng": 145.0233112
      }
    },
    "source": "GHAR_Datasets - Police Locations.csv"
  },
  {
    "id": 301,
    "type": "police_station",
    "class": "POLICING FACILITY",
    "name": "CAVENDISH POLICE STATION",
    "status": "OPERATIONAL",
    "state": "VICTORIA",
    "suburb": "CAVENDISH",
    "postcode": "3314",
    "coordinates": {
      "lat": -37.52720495,
      "lng": 142.0404104
    },
    "address": "27 SCOTT STREET",
    "gnaf": {
      "address_detail_pid": "GAVIC424917194",
      "confidence": 2.0,
      "postcode": "3314",
      "suburb": "CAVENDISH",
      "distance_to_gnaf_m": 0.0,
      "coordinates": {
        "lat": -37.52720495,
        "lng": 142.0404104
      }
    },
    "source": "GHAR_Datasets - Police Locations.csv"
  },
  {
    "id": 307,
    "type": "police_station",
    "class": "POLICING FACILITY",
    "name": "CHARLTON POLICE STATION",
    "status": "OPERATIONAL",
    "state": "VICTORIA",
    "suburb": "CHARLTON",
    "postcode": "3525",
    "coordinates": {
      "lat": -36.26960541,
      "lng": 143.3483735
    },
    "address": "12 CAMP STREET",
    "gnaf": {
      "address_detail_pid": "GAVIC420631268",
      "confidence": 2.0,
      "postcode": "3525",
      "suburb": "CHARLTON",
      "distance_to_gnaf_m": 0.0,
      "coordinates": {
        "lat": -36.2696054,
        "lng": 143.3483735
      }
    },
    "source": "GHAR_Datasets - Police Locations.csv"
  },
  {
    "id": 310,
    "type": "police_station",
    "class": "POLICING FACILITY",
    "name": "CHELSEA POLICE STATION",
    "status": "OPERATIONAL",
    "state": "VICTORIA",
    "suburb": "CHELSEA",
    "postcode": "3196",
    "coordinates": {
      "lat": -38.05135574,
      "lng": 145.1163276
    },
    "address": "314-315 STATION STREET",
    "gnaf": {
      "address_detail_pid": "GAVIC423759061",
      "confidence": 1.0,
      "postcode": "3196",
      "suburb": "CHELSEA",
      "distance_to_gnaf_m": 0.0,
      "coordinates": {
        "lat": -38.05135574,
        "lng": 145.1163276
      }
    },
    "source": "GHAR_Datasets - Police Locations.csv"
  },
  {
    "id": 313,
    "type": "police_station",
    "class": "POLICING FACILITY",
    "name": "CHELTENHAM POLICE STATION",
    "status": "OPERATIONAL",
    "state": "VICTORIA",
    "suburb": "CHELTENHAM",
    "postcode": "3192",
    "coordinates": {
      "lat": -37.96474396,
      "lng": 145.0565872
    },
    "address": "1222 NEPEAN HIGHWAY",
    "gnaf": {
      "address_detail_pid": "GAVIC413906737",
      "confidence": 1.0,
      "postcode": "3192",
      "suburb": "CHELTENHAM",
      "distance_to_gnaf_m": 0.0,
      "coordinates": {
        "lat": -37.96474395,
        "lng": 145.0565872
      }
    },
    "source": "GHAR_Datasets - Police Locations.csv"
  },
  {
    "id": 321,
    "type": "police_station",
    "class": "POLICING FACILITY",
    "name": "CHILTERN POLICE STATION",
    "status": "OPERATIONAL",
    "state": "VICTORIA",
    "suburb": "CHILTERN",
    "postcode": "3683",
    "coordinates": {
      "lat": -36.14814524,
      "lng": 146.6105714
    },
    "address": "64 MAIN STREET",
    "gnaf": {
      "address_detail_pid": "GAVIC411109459",
      "confidence": 2.0,
      "postcode": "3683",
      "suburb": "CHILTERN",
      "distance_to_gnaf_m": 9.0,
      "coordinates": {
        "lat": -36.14807205,
        "lng": 146.6106091
      }
    },
    "source": "GHAR_Datasets - Police Locations.csv"
  },
  {
    "id": 327,
    "type": "police_station",
    "class": "POLICING FACILITY",
    "name": "CHURCHILL POLICE STATION",
    "status": "OPERATIONAL",
    "state": "VICTORIA",
    "suburb": "CHURCHILL",
    "postcode": "3842",
    "coordinates": {
      "lat": -38.3077281,
      "lng": 146.417384
    },
    "address": "6 SWITCHBACK ROAD",
    "gnaf": {
      "address_detail_pid": "GAVIC419833832",
      "confidence": 1.0,
      "postcode": "3842",
      "suburb": "CHURCHILL",
      "distance_to_gnaf_m": 0.0,
      "coordinates": {
        "lat": -38.3077281,
        "lng": 146.417384
      }
    },
    "source": "GHAR_Datasets - Police Locations.csv"
  },
  {
    "id": 331,
    "type": "police_station",
    "class": "POLICING FACILITY",
    "name": "CLAYTON POLICE STATION",
    "status": "OPERATIONAL",
    "state": "VICTORIA",
    "suburb": "CLAYTON",
    "postcode": "3168",
    "coordinates": {
      "lat": -37.92013756,
      "lng": 145.1204667
    },
    "address": "263 CLAYTON ROAD",
    "gnaf": {
      "address_detail_pid": "GAVIC420618106",
      "confidence": 2.0,
      "postcode": "3168",
      "suburb": "CLAYTON",
      "distance_to_gnaf_m": 0.0,
      "coordinates": {
        "lat": -37.920137,
        "lng": 145.120466
      }
    },
    "source": "GHAR_Datasets - Police Locations.csv"
  },
  {
    "id": 340,
    "type": "police_station",
    "class": "POLICING FACILITY",
    "name": "CLUNES POLICE STATION",
    "status": "OPERATIONAL",
    "state": "VICTORIA",
    "suburb": "CLUNES",
    "postcode": "3370",
    "coordinates": {
      "lat": -37.29514951,
      "lng": 143.783629
    },
    "address": "2 HANNAH STREET",
    "gnaf": {
      "address_detail_pid": "GAVIC424538376",
      "confidence": 0.0,
      "postcode": "3370",
      "suburb": "CLUNES",
      "distance_to_gnaf_m": 0.0,
      "coordinates": {
        "lat": -37.2951495,
        "lng": 143.783629
      }
    },
    "source": "GHAR_Datasets - Police Locations.csv"
  },
  {
    "id": 345,
    "type": "police_station",
    "class": "POLICING FACILITY",
    "name": "COBDEN POLICE STATION",
    "status": "OPERATIONAL",
    "state": "VICTORIA",
    "suburb": "COBDEN",
    "postcode": "3266",
    "coordinates": {
      "lat": -38.32819155,
      "lng": 143.0755614
    },
    "address": "52 CURDIE STREET",
    "gnaf": {
      "address_detail_pid": "GAVIC421792452",
      "confidence": 1.0,
      "postcode": "3266",
      "suburb": "COBDEN",
      "distance_to_gnaf_m": 0.0,
      "coordinates": {
        "lat": -38.32819155,
        "lng": 143.0755614
      }
    },
    "source": "GHAR_Datasets - Police Locations.csv"
  },
  {
    "id": 347,
    "type": "police_station",
    "class": "POLICING FACILITY",
    "name": "COBRAM POLICE STATION",
    "status": "OPERATIONAL",
    "state": "VICTORIA",
    "suburb": "COBRAM",
    "postcode": "3644",
    "coordinates": {
      "lat": -35.92038363,
      "lng": 145.6509744
    },
    "address": "36 WILLIAM STREET",
    "gnaf": {
      "address_detail_pid": "GAVIC719459592",
      "confidence": 2.0,
      "postcode": "3644",
      "suburb": "COBRAM",
      "distance_to_gnaf_m": 0.0,
      "coordinates": {
        "lat": -35.92038363,
        "lng": 145.6509744
      }
    },
    "source": "GHAR_Datasets - Police Locations.csv"
  },
  {
    "id": 357,
    "type": "police_station",
    "class": "POLICING FACILITY",
    "name": "COHUNA POLICE STATION",
    "status": "OPERATIONAL",
    "state": "VICTORIA",
    "suburb": "COHUNA",
    "postcode": "3568",
    "coordinates": {
      "lat": -35.8113448,
      "lng": 144.2215335
    },
    "address": "25 MARKET STREET",
    "gnaf": {
      "address_detail_pid": "GAVIC419669583",
      "confidence": 2.0,
      "postcode": "3568",
      "suburb": "COHUNA",
      "distance_to_gnaf_m": 0.0,
      "coordinates": {
        "lat": -35.8113448,
        "lng": 144.2215336
      }
    },
    "source": "GHAR_Datasets - Police Locations.csv"
  },
  {
    "id": 366,
    "type": "police_station",
    "class": "POLICING FACILITY",
    "name": "COLERAINE POLICE STATION",
    "status": "OPERATIONAL",
    "state": "VICTORIA",
    "suburb": "COLERAINE",
    "postcode": "3315",
    "coordinates": {
      "lat": -37.59986087,
      "lng": 141.6930578
    },
    "address": "63 MCLEOD STREET",
    "gnaf": {
      "address_detail_pid": "GAVIC420575831",
      "confidence": 2.0,
      "postcode": "3315",
      "suburb": "COLERAINE",
      "distance_to_gnaf_m": 0.0,
      "coordinates": {
        "lat": -37.59986086,
        "lng": 141.6930579
      }
    },
    "source": "GHAR_Datasets - Police Locations.csv"
  },
  {
    "id": 378,
    "type": "police_station",
    "class": "POLICING FACILITY",
    "name": "CORIO POLICE STATION",
    "status": "OPERATIONAL",
    "state": "VICTORIA",
    "suburb": "CORIO",
    "postcode": "3214",
    "coordinates": {
      "lat": -38.07390162,
      "lng": 144.3582333
    },
    "address": "121 BACCHUS MARSH ROAD",
    "gnaf": {
      "address_detail_pid": "GAVIC420762816",
      "confidence": -1.0,
      "postcode": "3214",
      "suburb": "CORIO",
      "distance_to_gnaf_m": 30.0,
      "coordinates": {
        "lat": -38.0736347,
        "lng": 144.3582267
      }
    },
    "source": "GHAR_Datasets - Police Locations.csv"
  },
  {
    "id": 385,
    "type": "police_station",
    "class": "POLICING FACILITY",
    "name": "CORRYONG POLICE STATION",
    "status": "OPERATIONAL",
    "state": "VICTORIA",
    "suburb": "CORRYONG",
    "postcode": "3707",
    "coordinates": {
      "lat": -36.19451372,
      "lng": 147.9039414
    },
    "address": "19 JARDINE STREET",
    "gnaf": {
      "address_detail_pid": "GAVIC421658906",
      "confidence": 1.0,
      "postcode": "3707",
      "suburb": "CORRYONG",
      "distance_to_gnaf_m": 0.0,
      "coordinates": {
        "lat": -36.19451371,
        "lng": 147.9039414
      }
    },
    "source": "GHAR_Datasets - Police Locations.csv"
  },
  {
    "id": 390,
    "type": "police_station",
    "class": "POLICING FACILITY",
    "name": "COWES POLICE STATION",
    "status": "OPERATIONAL",
    "state": "VICTORIA",
    "suburb": "COWES",
    "postcode": "3922",
    "coordinates": {
      "lat": -38.45008081,
      "lng": 145.2356709
    },
    "address": "92 CHAPEL STREET",
    "gnaf": {
      "address_detail_pid": "GAVIC421157777",
      "confidence": 2.0,
      "postcode": "3922",
      "suburb": "COWES",
      "distance_to_gnaf_m": 0.0,
      "coordinates": {
        "lat": -38.45008081,
        "lng": 145.2356709
      }
    },
    "source": "GHAR_Datasets - Police Locations.csv"
  },
  {
    "id": 396,
    "type": "police_station",
    "class": "POLICING FACILITY",
    "name": "CRAIGIEBURN POLICE STATION",
    "status": "OPERATIONAL",
    "state": "VICTORIA",
    "suburb": "CRAIGIEBURN",
    "postcode": "3064",
    "coordinates": {
      "lat": -37.59834567,
      "lng": 144.9331195
    },
    "address": "1 BELSAY PLACE",
    "gnaf": {
      "address_detail_pid": "GAVIC424059775",
      "confidence": 0.0,
      "postcode": "3064",
      "suburb": "CRAIGIEBURN",
      "distance_to_gnaf_m": 0.0,
      "coordinates": {
        "lat": -37.59834566,
        "lng": 144.9331195
      }
    },
    "source": "GHAR_Datasets - Police Locations.csv"
  },
  {
    "id": 398,
    "type": "police_station",
    "class": "POLICING FACILITY",
    "name": "CRANBOURNE POLICE STATION",
    "status": "OPERATIONAL",
    "state": "VICTORIA",
    "suburb": "CRANBOURNE",
    "postcode": "3977",
    "coordinates": {
      "lat": -38.11336242,
      "lng": 145.2834295
    },
    "address": "166-168 SLADEN STREET",
    "gnaf": {
      "address_detail_pid": "GAVIC421833215",
      "confidence": 0.0,
      "postcode": "3977",
      "suburb": "CRANBOURNE",
      "distance_to_gnaf_m": 0.0,
      "coordinates": {
        "lat": -38.11336243,
        "lng": 145.2834295
      }
    },
    "source": "GHAR_Datasets - Police Locations.csv"
  },
  {
    "id": 404,
    "type": "police_station",
    "class": "POLICING FACILITY",
    "name": "CRESSY POLICE STATION",
    "status": "OPERATIONAL",
    "state": "VICTORIA",
    "suburb": "CRESSY",
    "postcode": "3322",
    "coordinates": {
      "lat": -38.03170404,
      "lng": 143.6336456
    },
    "address": "8-10 LYONS STREET",
    "gnaf": {
      "address_detail_pid": "GAVIC423831399",
      "confidence": 1.0,
      "postcode": "3322",
      "suburb": "CRESSY",
      "distance_to_gnaf_m": 0.0,
      "coordinates": {
        "lat": -38.03170404,
        "lng": 143.6336456
      }
    },
    "source": "GHAR_Datasets - Police Locations.csv"
  },
  {
    "id": 407,
    "type": "police_station",
    "class": "POLICING FACILITY",
    "name": "CRESWICK POLICE STATION",
    "status": "OPERATIONAL",
    "state": "VICTORIA",
    "suburb": "CRESWICK",
    "postcode": "3363",
    "coordinates": {
      "lat": -37.42989847,
      "lng": 143.8923472
    },
    "address": "137 NAPIER STREET",
    "gnaf": {
      "address_detail_pid": "GAVIC420574601",
      "confidence": 2.0,
      "postcode": "3363",
      "suburb": "CRESWICK",
      "distance_to_gnaf_m": 0.0,
      "coordinates": {
        "lat": -37.42989846,
        "lng": 143.8923472
      }
    },
    "source": "GHAR_Datasets - Police Locations.csv"
  },
  {
    "id": 413,
    "type": "police_station",
    "class": "POLICING FACILITY",
    "name": "CROYDON POLICE STATION",
    "status": "OPERATIONAL",
    "state": "VICTORIA",
    "suburb": "CROYDON",
    "postcode": "3136",
    "coordinates": {
      "lat": -37.79921657,
      "lng": 145.2784989
    },
    "address": "171-175 MT DANDENONG ROAD",
    "gnaf": {
      "address_detail_pid": "GAVIC423806049",
      "confidence": 2.0,
      "postcode": "3136",
      "suburb": "CROYDON",
      "distance_to_gnaf_m": 0.0,
      "coordinates": {
        "lat": -37.79921656,
        "lng": 145.2784991
      }
    },
    "source": "GHAR_Datasets - Police Locations.csv"
  },
  {
    "id": 419,
    "type": "police_station",
    "class": "POLICING FACILITY",
    "name": "CULGOA POLICE STATION",
    "status": "OPERATIONAL",
    "state": "VICTORIA",
    "suburb": "CULGOA",
    "postcode": "3530",
    "coordinates": {
      "lat": -35.71746879,
      "lng": 143.1062669
    },
    "address": "19 MAIN STREET",
    "gnaf": {
      "address_detail_pid": "GAVIC411220501",
      "confidence": 0.0,
      "postcode": "3530",
      "suburb": "CULGOA",
      "distance_to_gnaf_m": 41.0,
      "coordinates": {
        "lat": -35.71730437,
        "lng": 143.1066777
      }
    },
    "source": "GHAR_Datasets - Police Locations.csv"
  },
  {
    "id": 427,
    "type": "police_station",
    "class": "POLICING FACILITY",
    "name": "DANDENONG POLICE STATION",
    "status": "OPERATIONAL",
    "state": "VICTORIA",
    "suburb": "DANDENONG",
    "postcode": "3175",
    "coordinates": {
      "lat": -37.99024861,
      "lng": 145.2173849
    },
    "address": "34-50 LANGHORNE STREET",
    "gnaf": {
      "address_detail_pid": "GAVIC420729820",
      "confidence": 1.0,
      "postcode": "3175",
      "suburb": "DANDENONG",
      "distance_to_gnaf_m": 0.0,
      "coordinates": {
        "lat": -37.9902486,
        "lng": 145.2173849
      }
    },
    "source": "GHAR_Datasets - Police Locations.csv"
  },
  {
    "id": 438,
    "type": "police_station",
    "class": "POLICING FACILITY",
    "name": "DAYLESFORD POLICE STATION",
    "status": "OPERATIONAL",
    "state": "VICTORIA",
    "suburb": "DAYLESFORD",
    "postcode": "3460",
    "coordinates": {
      "lat": -37.33802047,
      "lng": 144.1437254
    },
    "address": "12 VINCENT STREET",
    "gnaf": {
      "address_detail_pid": "GAVIC411240971",
      "confidence": 2.0,
      "postcode": "3460",
      "suburb": "DAYLESFORD",
      "distance_to_gnaf_m": 9.0,
      "coordinates": {
        "lat": -37.33804384,
        "lng": 144.1436267
      }
    },
    "source": "GHAR_Datasets - Police Locations.csv"
  },
  {
    "id": 441,
    "type": "police_station",
    "class": "POLICING FACILITY",
    "name": "DEDERANG POLICE STATION",
    "status": "OPERATIONAL",
    "state": "VICTORIA",
    "suburb": "DEDERANG",
    "postcode": "3691",
    "coordinates": {
      "lat": -36.47162709,
      "lng": 147.0176028
    },
    "address": "4396 KIEWA VALLEY HIGHWAY",
    "gnaf": {
      "address_detail_pid": "GAVIC422161034",
      "confidence": 1.0,
      "postcode": "3691",
      "suburb": "DEDERANG",
      "distance_to_gnaf_m": 1.0,
      "coordinates": {
        "lat": -36.47162316,
        "lng": 147.0176111
      }
    },
    "source": "GHAR_Datasets - Police Locations.csv"
  },
  {
    "id": 454,
    "type": "police_station",
    "class": "POLICING FACILITY",
    "name": "DIAMOND CREEK POLICE STATION",
    "status": "OPERATIONAL",
    "state": "VICTORIA",
    "suburb": "DIAMOND CREEK",
    "postcode": "3089",
    "coordinates": {
      "lat": -37.67408967,
      "lng": 145.1605942
    },
    "address": "83 MAIN HURSTBRIDGE ROAD",
    "gnaf": {
      "address_detail_pid": "GAVIC423641270",
      "confidence": 1.0,
      "postcode": "3089",
      "suburb": "DIAMOND CREEK",
      "distance_to_gnaf_m": 28.0,
      "coordinates": {
        "lat": -37.67383909,
        "lng": 145.1606229
      }
    },
    "source": "GHAR_Datasets - Police Locations.csv"
  },
  {
    "id": 458,
    "type": "police_station",
    "class": "POLICING FACILITY",
    "name": "DIMBOOLA POLICE STATION",
    "status": "OPERATIONAL",
    "state": "VICTORIA",
    "suburb": "DIMBOOLA",
    "postcode": "3414",
    "coordinates": {
      "lat": -36.45644008,
      "lng": 142.0278815
    },
    "address": "57 LLOYD STREET",
    "gnaf": {
      "address_detail_pid": "GAVIC414329216",
      "confidence": 1.0,
      "postcode": "3414",
      "suburb": "DIMBOOLA",
      "distance_to_gnaf_m": 0.0,
      "coordinates": {
        "lat": -36.45644008,
        "lng": 142.0278815
      }
    },
    "source": "GHAR_Datasets - Police Locations.csv"
  },
  {
    "id": 466,
    "type": "police_station",
    "class": "POLICING FACILITY",
    "name": "MELBOURNE WEST POLICE STATION",
    "status": "OPERATIONAL",
    "state": "VICTORIA",
    "suburb": "DOCKLANDS",
    "postcode": "3008",
    "coordinates": {
      "lat": -37.81380745,
      "lng": 144.9512542
    },
    "address": "313 SPENCER STREET",
    "gnaf": {
      "address_detail_pid": "GAVIC412734026",
      "confidence": 1.0,
      "postcode": "3008",
      "suburb": "DOCKLANDS",
      "distance_to_gnaf_m": 22.0,
      "coordinates": {
        "lat": -37.81363381,
        "lng": 144.9513697
      }
    },
    "source": "GHAR_Datasets - Police Locations.csv"
  },
  {
    "id": 469,
    "type": "police_station",
    "class": "POLICING FACILITY",
    "name": "DONALD POLICE STATION",
    "status": "OPERATIONAL",
    "state": "VICTORIA",
    "suburb": "DONALD",
    "postcode": "3480",
    "coordinates": {
      "lat": -36.37365692,
      "lng": 142.9840665
    },
    "address": "11 BYRNE STREET",
    "gnaf": {
      "address_detail_pid": "GAVIC420356891",
      "confidence": 2.0,
      "postcode": "3480",
      "suburb": "DONALD",
      "distance_to_gnaf_m": 8.0,
      "coordinates": {
        "lat": -36.3736045,
        "lng": 142.9840028
      }
    },
    "source": "GHAR_Datasets - Police Locations.csv"
  },
  {
    "id": 473,
    "type": "police_station",
    "class": "POLICING FACILITY",
    "name": "DONCASTER POLICE STATION",
    "status": "OPERATIONAL",
    "state": "VICTORIA",
    "suburb": "DONCASTER EAST",
    "postcode": "3109",
    "coordinates": {
      "lat": -37.78842363,
      "lng": 145.1578316
    },
    "address": "979-981 DONCASTER ROAD",
    "gnaf": {
      "address_detail_pid": "GAVIC413307904",
      "confidence": 0.0,
      "postcode": "3109",
      "suburb": "DONCASTER EAST",
      "distance_to_gnaf_m": 0.0,
      "coordinates": {
        "lat": -37.78842363,
        "lng": 145.1578316
      }
    },
    "source": "GHAR_Datasets - Police Locations.csv"
  },
  {
    "id": 476,
    "type": "police_station",
    "class": "POLICING FACILITY",
    "name": "DOOKIE POLICE STATION",
    "status": "OPERATIONAL",
    "state": "VICTORIA",
    "suburb": "DOOKIE",
    "postcode": "3646",
    "coordinates": {
      "lat": -36.3304489,
      "lng": 145.6857037
    },
    "address": "26 QUEEN STREET",
    "gnaf": {
      "address_detail_pid": "GAVIC414498166",
      "confidence": 1.0,
      "postcode": "3646",
      "suburb": "DOOKIE",
      "distance_to_gnaf_m": 0.0,
      "coordinates": {
        "lat": -36.3304489,
        "lng": 145.6857038
      }
    },
    "source": "GHAR_Datasets - Police Locations.csv"
  },
  {
    "id": 481,
    "type": "police_station",
    "class": "POLICING FACILITY",
    "name": "DROMANA POLICE STATION",
    "status": "OPERATIONAL",
    "state": "VICTORIA",
    "suburb": "DROMANA",
    "postcode": "3936",
    "coordinates": {
      "lat": -38.33473171,
      "lng": 144.9610516
    },
    "address": "321 POINT NEPEAN ROAD",
    "gnaf": {
      "address_detail_pid": "GAVIC421633042",
      "confidence": 2.0,
      "postcode": "3936",
      "suburb": "DROMANA",
      "distance_to_gnaf_m": 0.0,
      "coordinates": {
        "lat": -38.3347317,
        "lng": 144.9610516
      }
    },
    "source": "GHAR_Datasets - Police Locations.csv"
  },
  {
    "id": 483,
    "type": "police_station",
    "class": "POLICING FACILITY",
    "name": "DROUIN POLICE STATION",
    "status": "OPERATIONAL",
    "state": "VICTORIA",
    "suburb": "DROUIN",
    "postcode": "3818",
    "coordinates": {
      "lat": -38.13021266,
      "lng": 145.8493238
    },
    "address": "184 PRINCES WAY",
    "gnaf": {
      "address_detail_pid": "GAVIC423333412",
      "confidence": 1.0,
      "postcode": "3818",
      "suburb": "DROUIN",
      "distance_to_gnaf_m": 0.0,
      "coordinates": {
        "lat": -38.130212,
        "lng": 145.849323
      }
    },
    "source": "GHAR_Datasets - Police Locations.csv"
  },
  {
    "id": 492,
    "type": "police_station",
    "class": "POLICING FACILITY",
    "name": "DRYSDALE POLICE STATION",
    "status": "OPERATIONAL",
    "state": "VICTORIA",
    "suburb": "DRYSDALE",
    "postcode": "3222",
    "coordinates": {
      "lat": -38.17496926,
      "lng": 144.5697641
    },
    "address": "21-27 EVERSLEY STREET",
    "gnaf": {
      "address_detail_pid": "GAVIC424355159",
      "confidence": 1.0,
      "postcode": "3222",
      "suburb": "DRYSDALE",
      "distance_to_gnaf_m": 23.0,
      "coordinates": {
        "lat": -38.17511038,
        "lng": 144.569959
      }
    },
    "source": "GHAR_Datasets - Police Locations.csv"
  },
  {
    "id": 502,
    "type": "police_station",
    "class": "POLICING FACILITY",
    "name": "DUNKELD POLICE STATION",
    "status": "OPERATIONAL",
    "state": "VICTORIA",
    "suburb": "DUNKELD",
    "postcode": "3294",
    "coordinates": {
      "lat": -37.6499802,
      "lng": 142.3450426
    },
    "address": "67-69 PARKER STREET",
    "gnaf": {
      "address_detail_pid": "GAVIC424543652",
      "confidence": 1.0,
      "postcode": "3294",
      "suburb": "DUNKELD",
      "distance_to_gnaf_m": 34.0,
      "coordinates": {
        "lat": -37.65000205,
        "lng": 142.3454214
      }
    },
    "source": "GHAR_Datasets - Police Locations.csv"
  },
  {
    "id": 503,
    "type": "police_station",
    "class": "POLICING FACILITY",
    "name": "DUNOLLY POLICE STATION",
    "status": "OPERATIONAL",
    "state": "VICTORIA",
    "suburb": "DUNOLLY",
    "postcode": "3472",
    "coordinates": {
      "lat": -36.85712091,
      "lng": 143.733654
    },
    "address": "9 BULL STREET",
    "gnaf": {
      "address_detail_pid": "GAVIC421791320",
      "confidence": 2.0,
      "postcode": "3472",
      "suburb": "DUNOLLY",
      "distance_to_gnaf_m": 14.0,
      "coordinates": {
        "lat": -36.85718468,
        "lng": 143.7335252
      }
    },
    "source": "GHAR_Datasets - Police Locations.csv"
  },
  {
    "id": 516,
    "type": "police_station",
    "class": "POLICING FACILITY",
    "name": "ECHUCA POLICE STATION",
    "status": "OPERATIONAL",
    "state": "VICTORIA",
    "suburb": "ECHUCA",
    "postcode": "3564",
    "coordinates": {
      "lat": -36.11909002,
      "lng": 144.744872
    },
    "address": "7-11 DICKSON STREET",
    "gnaf": {
      "address_detail_pid": "GAVIC420573493",
      "confidence": 1.0,
      "postcode": "3564",
      "suburb": "ECHUCA",
      "distance_to_gnaf_m": 0.0,
      "coordinates": {
        "lat": -36.11909001,
        "lng": 144.744872
      }
    },
    "source": "GHAR_Datasets - Police Locations.csv"
  },
  {
    "id": 524,
    "type": "police_station",
    "class": "POLICING FACILITY",
    "name": "EDENHOPE POLICE STATION",
    "status": "OPERATIONAL",
    "state": "VICTORIA",
    "suburb": "EDENHOPE",
    "postcode": "3318",
    "coordinates": {
      "lat": -37.03639009,
      "lng": 141.2928682
    },
    "address": "3-5 ORME STREET",
    "gnaf": {
      "address_detail_pid": "GAVIC423797270",
      "confidence": 0.0,
      "postcode": "3318",
      "suburb": "EDENHOPE",
      "distance_to_gnaf_m": 0.0,
      "coordinates": {
        "lat": -37.03639009,
        "lng": 141.2928682
      }
    },
    "source": "GHAR_Datasets - Police Locations.csv"
  },
  {
    "id": 528,
    "type": "police_station",
    "class": "POLICING FACILITY",
    "name": "EILDON POLICE STATION",
    "status": "OPERATIONAL",
    "state": "VICTORIA",
    "suburb": "EILDON",
    "postcode": "3713",
    "coordinates": {
      "lat": -37.23227627,
      "lng": 145.9103225
    },
    "address": "22 MAIN STREET",
    "gnaf": {
      "address_detail_pid": "GAVIC422167222",
      "confidence": 1.0,
      "postcode": "3713",
      "suburb": "EILDON",
      "distance_to_gnaf_m": 0.0,
      "coordinates": {
        "lat": -37.23227626,
        "lng": 145.9103225
      }
    },
    "source": "GHAR_Datasets - Police Locations.csv"
  },
  {
    "id": 534,
    "type": "police_station",
    "class": "POLICING FACILITY",
    "name": "ELMHURST POLICE STATION",
    "status": "OPERATIONAL",
    "state": "VICTORIA",
    "suburb": "ELMHURST",
    "postcode": "3469",
    "coordinates": {
      "lat": -37.18084291,
      "lng": 143.2505068
    },
    "address": "25 HIGH STREET",
    "gnaf": {
      "address_detail_pid": "GAVIC423828843",
      "confidence": 1.0,
      "postcode": "3469",
      "suburb": "ELMHURST",
      "distance_to_gnaf_m": 0.0,
      "coordinates": {
        "lat": -37.1808429,
        "lng": 143.2505068
      }
    },
    "source": "GHAR_Datasets - Police Locations.csv"
  },
  {
    "id": 536,
    "type": "police_station",
    "class": "POLICING FACILITY",
    "name": "ELMORE POLICE STATION",
    "status": "OPERATIONAL",
    "state": "VICTORIA",
    "suburb": "ELMORE",
    "postcode": "3558",
    "coordinates": {
      "lat": -36.49599314,
      "lng": 144.6110343
    },
    "address": "58 HERVEY STREET",
    "gnaf": {
      "address_detail_pid": "GAVIC414464694",
      "confidence": 1.0,
      "postcode": "3558",
      "suburb": "ELMORE",
      "distance_to_gnaf_m": 0.0,
      "coordinates": {
        "lat": -36.49599314,
        "lng": 144.6110343
      }
    },
    "source": "GHAR_Datasets - Police Locations.csv"
  },
  {
    "id": 541,
    "type": "police_station",
    "class": "POLICING FACILITY",
    "name": "ELTHAM POLICE STATION",
    "status": "OPERATIONAL",
    "state": "VICTORIA",
    "suburb": "ELTHAM",
    "postcode": "3095",
    "coordinates": {
      "lat": -37.7134472,
      "lng": 145.1506375
    },
    "address": "21 PRYOR STREET",
    "gnaf": {
      "address_detail_pid": "GAVIC421042722",
      "confidence": 1.0,
      "postcode": "3095",
      "suburb": "ELTHAM",
      "distance_to_gnaf_m": 0.0,
      "coordinates": {
        "lat": -37.713447,
        "lng": 145.150637
      }
    },
    "source": "GHAR_Datasets - Police Locations.csv"
  },
  {
    "id": 545,
    "type": "police_station",
    "class": "POLICING FACILITY",
    "name": "EMERALD POLICE STATION",
    "status": "OPERATIONAL",
    "state": "VICTORIA",
    "suburb": "EMERALD",
    "postcode": "3782",
    "coordinates": {
      "lat": -37.93051106,
      "lng": 145.4439265
    },
    "address": "386-390 BELGRAVE-GEMBROOK ROAD",
    "gnaf": {
      "address_detail_pid": "GAVIC425667860",
      "confidence": 0.0,
      "postcode": "3782",
      "suburb": "EMERALD",
      "distance_to_gnaf_m": 21.0,
      "coordinates": {
        "lat": -37.93038424,
        "lng": 145.4441015
      }
    },
    "source": "GHAR_Datasets - Police Locations.csv"
  },
  {
    "id": 548,
    "type": "police_station",
    "class": "POLICING FACILITY",
    "name": "ENDEAVOUR HILLS POLICE STATION",
    "status": "OPERATIONAL",
    "state": "VICTORIA",
    "suburb": "ENDEAVOUR HILLS",
    "postcode": "3802",
    "coordinates": {
      "lat": -37.97566296,
      "lng": 145.2616756
    },
    "address": "80 HEATHERTON ROAD",
    "gnaf": {
      "address_detail_pid": "GAVIC421219377",
      "confidence": 1.0,
      "postcode": "3802",
      "suburb": "ENDEAVOUR HILLS",
      "distance_to_gnaf_m": 19.0,
      "coordinates": {
        "lat": -37.97579605,
        "lng": 145.2618149
      }
    },
    "source": "GHAR_Datasets - Police Locations.csv"
  },
  {
    "id": 552,
    "type": "police_station",
    "class": "POLICING FACILITY",
    "name": "EPPING POLICE STATION",
    "status": "OPERATIONAL",
    "state": "VICTORIA",
    "suburb": "EPPING",
    "postcode": "3076",
    "coordinates": {
      "lat": -37.64674204,
      "lng": 145.0258916
    },
    "address": "785 HIGH STREET",
    "gnaf": {
      "address_detail_pid": "GAVIC420916746",
      "confidence": 1.0,
      "postcode": "3076",
      "suburb": "EPPING",
      "distance_to_gnaf_m": 31.0,
      "coordinates": {
        "lat": -37.647019,
        "lng": 145.025866
      }
    },
    "source": "GHAR_Datasets - Police Locations.csv"
  },
  {
    "id": 562,
    "type": "police_station",
    "class": "POLICING FACILITY",
    "name": "POLICE AIRWING POLICE STATION",
    "status": "OPERATIONAL",
    "state": "VICTORIA",
    "suburb": "ESSENDON FIELDS",
    "postcode": "3041",
    "coordinates": {
      "lat": -37.71984541,
      "lng": 144.8988636
    },
    "address": "12 GLOBAL AVENUE",
    "gnaf": {
      "address_detail_pid": "GAVIC719425750",
      "confidence": 1.0,
      "postcode": "3041",
      "suburb": "ESSENDON FIELDS",
      "distance_to_gnaf_m": 64.0,
      "coordinates": {
        "lat": -37.71970313,
        "lng": 144.898158
      }
    },
    "source": "GHAR_Datasets - Police Locations.csv"
  },
  {
    "id": 565,
    "type": "police_station",
    "class": "POLICING FACILITY",
    "name": "EUROA POLICE STATION",
    "status": "OPERATIONAL",
    "state": "VICTORIA",
    "suburb": "EUROA",
    "postcode": "3666",
    "coordinates": {
      "lat": -36.75173151,
      "lng": 145.5726938
    },
    "address": "40 KIRKLAND AVENUE",
    "gnaf": {
      "address_detail_pid": "GAVIC411388308",
      "confidence": 2.0,
      "postcode": "3666",
      "suburb": "EUROA",
      "distance_to_gnaf_m": 0.0,
      "coordinates": {
        "lat": -36.7517315,
        "lng": 145.5726938
      }
    },
    "source": "GHAR_Datasets - Police Locations.csv"
  },
  {
    "id": 573,
    "type": "police_station",
    "class": "POLICING FACILITY",
    "name": "FALLS CREEK POLICE STATION",
    "status": "OPERATIONAL",
    "state": "VICTORIA",
    "suburb": "FALLS CREEK",
    "postcode": "3699",
    "coordinates": {
      "lat": -36.863572,
      "lng": 147.282684
    },
    "address": "19 BOGONG HIGH PLAINS ROAD",
    "gnaf": {
      "address_detail_pid": "GAVIC425668356",
      "confidence": 1.0,
      "postcode": "3699",
      "suburb": "FALLS CREEK",
      "distance_to_gnaf_m": 4.0,
      "coordinates": {
        "lat": -36.86357348,
        "lng": 147.2826347
      }
    },
    "source": "GHAR_Datasets - Police Locations.csv"
  },
  {
    "id": 584,
    "type": "police_station",
    "class": "POLICING FACILITY",
    "name": "FITZROY POLICE STATION",
    "status": "OPERATIONAL",
    "state": "VICTORIA",
    "suburb": "FITZROY",
    "postcode": "3065",
    "coordinates": {
      "lat": -37.80222187,
      "lng": 144.9791316
    },
    "address": "201 NAPIER STREET",
    "gnaf": {
      "address_detail_pid": "GAVIC413108290",
      "confidence": 1.0,
      "postcode": "3065",
      "suburb": "FITZROY",
      "distance_to_gnaf_m": 69.0,
      "coordinates": {
        "lat": -37.80212027,
        "lng": 144.979901
      }
    },
    "source": "GHAR_Datasets - Police Locations.csv"
  },
  {
    "id": 586,
    "type": "police_station",
    "class": "POLICING FACILITY",
    "name": "FLEMINGTON POLICE STATION",
    "status": "OPERATIONAL",
    "state": "VICTORIA",
    "suburb": "FLEMINGTON",
    "postcode": "3031",
    "coordinates": {
      "lat": -37.78511911,
      "lng": 144.9321498
    },
    "address": "30 WELLINGTON STREET",
    "gnaf": {
      "address_detail_pid": "GAVIC419876644",
      "confidence": 2.0,
      "postcode": "3031",
      "suburb": "FLEMINGTON",
      "distance_to_gnaf_m": 0.0,
      "coordinates": {
        "lat": -37.785119,
        "lng": 144.932149
      }
    },
    "source": "GHAR_Datasets - Police Locations.csv"
  },
  {
    "id": 590,
    "type": "police_station",
    "class": "POLICING FACILITY",
    "name": "FOOTSCRAY POLICE STATION",
    "status": "OPERATIONAL",
    "state": "VICTORIA",
    "suburb": "FOOTSCRAY",
    "postcode": "3011",
    "coordinates": {
      "lat": -37.80386701,
      "lng": 144.9013728
    },
    "address": "66 HYDE STREET",
    "gnaf": {
      "address_detail_pid": "GAVIC425084870",
      "confidence": 0.0,
      "postcode": "3011",
      "suburb": "FOOTSCRAY",
      "distance_to_gnaf_m": 0.0,
      "coordinates": {
        "lat": -37.80386701,
        "lng": 144.9013728
      }
    },
    "source": "GHAR_Datasets - Police Locations.csv"
  },
  {
    "id": 594,
    "type": "police_station",
    "class": "POLICING FACILITY",
    "name": "FORREST POLICE STATION",
    "status": "OPERATIONAL",
    "state": "VICTORIA",
    "suburb": "FORREST",
    "postcode": "3236",
    "coordinates": {
      "lat": -38.52102481,
      "lng": 143.7166274
    },
    "address": "45 STATION STREET",
    "gnaf": {
      "address_detail_pid": "GAVIC411396383",
      "confidence": 2.0,
      "postcode": "3236",
      "suburb": "FORREST",
      "distance_to_gnaf_m": 0.0,
      "coordinates": {
        "lat": -38.5210248,
        "lng": 143.7166274
      }
    },
    "source": "GHAR_Datasets - Police Locations.csv"
  },
  {
    "id": 595,
    "type": "police_station",
    "class": "POLICING FACILITY",
    "name": "FOSTER POLICE STATION",
    "status": "OPERATIONAL",
    "state": "VICTORIA",
    "suburb": "FOSTER",
    "postcode": "3960",
    "coordinates": {
      "lat": -38.65214591,
      "lng": 146.2024355
    },
    "address": "69-71 MAIN STREET",
    "gnaf": {
      "address_detail_pid": "GAVIC424084764",
      "confidence": 0.0,
      "postcode": "3960",
      "suburb": "FOSTER",
      "distance_to_gnaf_m": 0.0,
      "coordinates": {
        "lat": -38.6521459,
        "lng": 146.2024355
      }
    },
    "source": "GHAR_Datasets - Police Locations.csv"
  },
  {
    "id": 602,
    "type": "police_station",
    "class": "POLICING FACILITY",
    "name": "FRANKSTON POLICE STATION",
    "status": "OPERATIONAL",
    "state": "VICTORIA",
    "suburb": "FRANKSTON",
    "postcode": "3199",
    "coordinates": {
      "lat": -38.13890076,
      "lng": 145.124667
    },
    "address": "15 FLETCHER ROAD",
    "gnaf": {
      "address_detail_pid": "GAVIC420996576",
      "confidence": 2.0,
      "postcode": "3199",
      "suburb": "FRANKSTON",
      "distance_to_gnaf_m": 0.0,
      "coordinates": {
        "lat": -38.13890073,
        "lng": 145.1246668
      }
    },
    "source": "GHAR_Datasets - Police Locations.csv"
  },
  {
    "id": 603,
    "type": "police_station",
    "class": "POLICING FACILITY",
    "name": "CARRUM DOWNS POLICE STATION",
    "status": "OPERATIONAL",
    "state": "VICTORIA",
    "suburb": "FRANKSTON NORTH",
    "postcode": "3200",
    "coordinates": {
      "lat": -38.11479826,
      "lng": 145.1733094
    },
    "address": "42 BALLARTO ROAD",
    "gnaf": {
      "address_detail_pid": "GAVIC421216548",
      "confidence": 1.0,
      "postcode": "3200",
      "suburb": "FRANKSTON NORTH",
      "distance_to_gnaf_m": 7.0,
      "coordinates": {
        "lat": -38.11482219,
        "lng": 145.1733842
      }
    },
    "source": "GHAR_Datasets - Police Locations.csv"
  },
  {
    "id": 613,
    "type": "police_station",
    "class": "POLICING FACILITY",
    "name": "GEELONG POLICE STATION",
    "status": "OPERATIONAL",
    "state": "VICTORIA",
    "suburb": "GEELONG",
    "postcode": "3220",
    "coordinates": {
      "lat": -38.1453584,
      "lng": 144.3569227
    },
    "address": "110 MERCER STREET",
    "gnaf": {
      "address_detail_pid": "GAVIC421476693",
      "confidence": 2.0,
      "postcode": "3220",
      "suburb": "GEELONG",
      "distance_to_gnaf_m": 39.0,
      "coordinates": {
        "lat": -38.14500963,
        "lng": 144.3568376
      }
    },
    "source": "GHAR_Datasets - Police Locations.csv"
  },
  {
    "id": 624,
    "type": "police_station",
    "class": "POLICING FACILITY",
    "name": "GISBORNE POLICE STATION",
    "status": "OPERATIONAL",
    "state": "VICTORIA",
    "suburb": "GISBORNE",
    "postcode": "3437",
    "coordinates": {
      "lat": -37.48538121,
      "lng": 144.5856497
    },
    "address": "35-41 ROBERTSON STREET",
    "gnaf": {
      "address_detail_pid": "GAVIC421841520",
      "confidence": 0.0,
      "postcode": "3437",
      "suburb": "GISBORNE",
      "distance_to_gnaf_m": 2.0,
      "coordinates": {
        "lat": -37.48536522,
        "lng": 144.5856442
      }
    },
    "source": "GHAR_Datasets - Police Locations.csv"
  },
  {
    "id": 628,
    "type": "police_station",
    "class": "POLICING FACILITY",
    "name": "GLEN WAVERLEY POLICE STATION",
    "status": "OPERATIONAL",
    "state": "VICTORIA",
    "suburb": "GLEN WAVERLEY",
    "postcode": "3150",
    "coordinates": {
      "lat": -37.90364053,
      "lng": 145.164095
    },
    "address": "643 FERNTREE GULLY ROAD",
    "gnaf": {
      "address_detail_pid": "GAVIC419707257",
      "confidence": 2.0,
      "postcode": "3150",
      "suburb": "GLEN WAVERLEY",
      "distance_to_gnaf_m": 0.0,
      "coordinates": {
        "lat": -37.90364,
        "lng": 145.164094
      }
    },
    "source": "GHAR_Datasets - Police Locations.csv"
  },
  {
    "id": 642,
    "type": "police_station",
    "class": "POLICING FACILITY",
    "name": "GLENROWAN POLICE STATION",
    "status": "OPERATIONAL",
    "state": "VICTORIA",
    "suburb": "GLENROWAN",
    "postcode": "3675",
    "coordinates": {
      "lat": -36.46348827,
      "lng": 146.2272592
    },
    "address": "72 GLADSTONE STREET",
    "gnaf": {
      "address_detail_pid": "GAVIC421628930",
      "confidence": 1.0,
      "postcode": "3675",
      "suburb": "GLENROWAN",
      "distance_to_gnaf_m": 10.0,
      "coordinates": {
        "lat": -36.46350825,
        "lng": 146.2271542
      }
    },
    "source": "GHAR_Datasets - Police Locations.csv"
  },
  {
    "id": 654,
    "type": "police_station",
    "class": "POLICING FACILITY",
    "name": "GOORNONG POLICE STATION",
    "status": "OPERATIONAL",
    "state": "VICTORIA",
    "suburb": "GOORNONG",
    "postcode": "3557",
    "coordinates": {
      "lat": -36.61405439,
      "lng": 144.509227
    },
    "address": "56",
    "gnaf": {
      "address_detail_pid": "GAVIC424475068",
      "confidence": 1.0,
      "postcode": "3557",
      "suburb": "GOORNONG",
      "distance_to_gnaf_m": 0.0,
      "coordinates": {
        "lat": -36.61405439,
        "lng": 144.509227
      }
    },
    "source": "GHAR_Datasets - Police Locations.csv"
  },
  {
    "id": 659,
    "type": "police_station",
    "class": "POLICING FACILITY",
    "name": "GORDON POLICE STATION",
    "status": "OPERATIONAL",
    "state": "VICTORIA",
    "suburb": "GORDON",
    "postcode": "3345",
    "coordinates": {
      "lat": -37.57980744,
      "lng": 144.1014971
    },
    "address": "86 MAIN STREET",
    "gnaf": {
      "address_detail_pid": "GAVIC423641310",
      "confidence": 1.0,
      "postcode": "3345",
      "suburb": "GORDON",
      "distance_to_gnaf_m": 0.0,
      "coordinates": {
        "lat": -37.57980744,
        "lng": 144.1014971
      }
    },
    "source": "GHAR_Datasets - Police Locations.csv"
  },
  {
    "id": 661,
    "type": "police_station",
    "class": "POLICING FACILITY",
    "name": "GOROKE POLICE STATION",
    "status": "OPERATIONAL",
    "state": "VICTORIA",
    "suburb": "GOROKE",
    "postcode": "3412",
    "coordinates": {
      "lat": -36.71857419,
      "lng": 141.4716842
    },
    "address": "58 MAIN STREET",
    "gnaf": {
      "address_detail_pid": "GAVIC411485858",
      "confidence": 2.0,
      "postcode": "3412",
      "suburb": "GOROKE",
      "distance_to_gnaf_m": 0.0,
      "coordinates": {
        "lat": -36.71857419,
        "lng": 141.4716842
      }
    },
    "source": "GHAR_Datasets - Police Locations.csv"
  },
  {
    "id": 676,
    "type": "police_station",
    "class": "POLICING FACILITY",
    "name": "GREENSBOROUGH POLICE STATION",
    "status": "OPERATIONAL",
    "state": "VICTORIA",
    "suburb": "GREENSBOROUGH",
    "postcode": "3088",
    "coordinates": {
      "lat": -37.70404257,
      "lng": 145.0961577
    },
    "address": "165 GRIMSHAW STREET",
    "gnaf": {
      "address_detail_pid": "GAVIC420647092",
      "confidence": 2.0,
      "postcode": "3088",
      "suburb": "GREENSBOROUGH",
      "distance_to_gnaf_m": 30.0,
      "coordinates": {
        "lat": -37.704079,
        "lng": 145.096492
      }
    },
    "source": "GHAR_Datasets - Police Locations.csv"
  },
  {
    "id": 684,
    "type": "police_station",
    "class": "POLICING FACILITY",
    "name": "WAURN PONDS POLICE STATION",
    "status": "OPERATIONAL",
    "state": "VICTORIA",
    "suburb": "GROVEDALE",
    "postcode": "3216",
    "coordinates": {
      "lat": -38.20254615,
      "lng": 144.3126301
    },
    "address": "13-33 ROSSACK DRIVE",
    "gnaf": {
      "address_detail_pid": "GAVIC425687740",
      "confidence": 0.0,
      "postcode": "3216",
      "suburb": "GROVEDALE",
      "distance_to_gnaf_m": 3.0,
      "coordinates": {
        "lat": -38.20252413,
        "lng": 144.3126237
      }
    },
    "source": "GHAR_Datasets - Police Locations.csv"
  },
  {
    "id": 687,
    "type": "police_station",
    "class": "POLICING FACILITY",
    "name": "GUNBOWER POLICE STATION",
    "status": "OPERATIONAL",
    "state": "VICTORIA",
    "suburb": "GUNBOWER",
    "postcode": "3566",
    "coordinates": {
      "lat": -35.95569877,
      "lng": 144.3671147
    },
    "address": "42",
    "gnaf": {
      "address_detail_pid": "GAVIC424281128",
      "confidence": 0.0,
      "postcode": "3566",
      "suburb": "GUNBOWER",
      "distance_to_gnaf_m": 14.0,
      "coordinates": {
        "lat": -35.95570072,
        "lng": 144.3672722
      }
    },
    "source": "GHAR_Datasets - Police Locations.csv"
  },
  {
    "id": 692,
    "type": "police_station",
    "class": "POLICING FACILITY",
    "name": "FAWKNER POLICE STATION",
    "status": "OPERATIONAL",
    "state": "VICTORIA",
    "suburb": "HADFIELD",
    "postcode": "3046",
    "coordinates": {
      "lat": -37.71817406,
      "lng": 144.9623307
    },
    "address": "1151 SYDNEY ROAD",
    "gnaf": {
      "address_detail_pid": "GAVIC423992795",
      "confidence": 1.0,
      "postcode": "3046",
      "suburb": "HADFIELD",
      "distance_to_gnaf_m": 0.0,
      "coordinates": {
        "lat": -37.71817406,
        "lng": 144.9623307
      }
    },
    "source": "GHAR_Datasets - Police Locations.csv"
  },
  {
    "id": 695,
    "type": "police_station",
    "class": "POLICING FACILITY",
    "name": "HALLS GAP POLICE STATION",
    "status": "OPERATIONAL",
    "state": "VICTORIA",
    "suburb": "HALLS GAP",
    "postcode": "3381",
    "coordinates": {
      "lat": -37.13652387,
      "lng": 142.5192956
    },
    "address": "74 GRAMPIANS ROAD",
    "gnaf": {
      "address_detail_pid": "GAVIC411495024",
      "confidence": 2.0,
      "postcode": "3381",
      "suburb": "HALLS GAP",
      "distance_to_gnaf_m": 0.0,
      "coordinates": {
        "lat": -37.13652386,
        "lng": 142.5192956
      }
    },
    "source": "GHAR_Datasets - Police Locations.csv"
  },
  {
    "id": 701,
    "type": "police_station",
    "class": "POLICING FACILITY",
    "name": "HAMILTON POLICE STATION",
    "status": "OPERATIONAL",
    "state": "VICTORIA",
    "suburb": "HAMILTON",
    "postcode": "3300",
    "coordinates": {
      "lat": -37.7476701,
      "lng": 142.0260467
    },
    "address": "17 THOMPSON STREET",
    "gnaf": {
      "address_detail_pid": "GAVIC419958289",
      "confidence": 1.0,
      "postcode": "3300",
      "suburb": "HAMILTON",
      "distance_to_gnaf_m": 0.0,
      "coordinates": {
        "lat": -37.7476701,
        "lng": 142.0260467
      }
    },
    "source": "GHAR_Datasets - Police Locations.csv"
  },
  {
    "id": 710,
    "type": "police_station",
    "class": "POLICING FACILITY",
    "name": "HARROW POLICE STATION",
    "status": "OPERATIONAL",
    "state": "VICTORIA",
    "suburb": "HARROW",
    "postcode": "3317",
    "coordinates": {
      "lat": -37.16419711,
      "lng": 141.5939318
    },
    "address": "7 BLAIR STREET",
    "gnaf": {
      "address_detail_pid": "GAVIC424442730",
      "confidence": 2.0,
      "postcode": "3317",
      "suburb": "HARROW",
      "distance_to_gnaf_m": 0.0,
      "coordinates": {
        "lat": -37.1641971,
        "lng": 141.5939318
      }
    },
    "source": "GHAR_Datasets - Police Locations.csv"
  },
  {
    "id": 713,
    "type": "police_station",
    "class": "POLICING FACILITY",
    "name": "HASTINGS POLICE STATION",
    "status": "OPERATIONAL",
    "state": "VICTORIA",
    "suburb": "HASTINGS",
    "postcode": "3915",
    "coordinates": {
      "lat": -38.3078632,
      "lng": 145.1846761
    },
    "address": "137 HIGH STREET",
    "gnaf": {
      "address_detail_pid": "GAVIC421357888",
      "confidence": 2.0,
      "postcode": "3915",
      "suburb": "HASTINGS",
      "distance_to_gnaf_m": 0.0,
      "coordinates": {
        "lat": -38.307863,
        "lng": 145.184676
      }
    },
    "source": "GHAR_Datasets - Police Locations.csv"
  },
  {
    "id": 718,
    "type": "police_station",
    "class": "POLICING FACILITY",
    "name": "HEALESVILLE POLICE STATION",
    "status": "OPERATIONAL",
    "state": "VICTORIA",
    "suburb": "HEALESVILLE",
    "postcode": "3777",
    "coordinates": {
      "lat": -37.65662715,
      "lng": 145.5108813
    },
    "address": "38 HARKER STREET",
    "gnaf": {
      "address_detail_pid": "GAVIC423461224",
      "confidence": 2.0,
      "postcode": "3777",
      "suburb": "HEALESVILLE",
      "distance_to_gnaf_m": 0.0,
      "coordinates": {
        "lat": -37.65662715,
        "lng": 145.5108813
      }
    },
    "source": "GHAR_Datasets - Police Locations.csv"
  },
  {
    "id": 724,
    "type": "police_station",
    "class": "POLICING FACILITY",
    "name": "HEATHCOTE POLICE STATION",
    "status": "OPERATIONAL",
    "state": "VICTORIA",
    "suburb": "HEATHCOTE",
    "postcode": "3523",
    "coordinates": {
      "lat": -36.9217141,
      "lng": 144.7091293
    },
    "address": "140 HIGH STREET",
    "gnaf": {
      "address_detail_pid": "GAVIC419664904",
      "confidence": 1.0,
      "postcode": "3523",
      "suburb": "HEATHCOTE",
      "distance_to_gnaf_m": 0.0,
      "coordinates": {
        "lat": -36.9217141,
        "lng": 144.7091293
      }
    },
    "source": "GHAR_Datasets - Police Locations.csv"
  },
  {
    "id": 729,
    "type": "police_station",
    "class": "POLICING FACILITY",
    "name": "HEIDELBERG POLICE STATION",
    "status": "OPERATIONAL",
    "state": "VICTORIA",
    "suburb": "HEIDELBERG",
    "postcode": "3084",
    "coordinates": {
      "lat": -37.7575202,
      "lng": 145.07073
    },
    "address": "9 JIKA STREET",
    "gnaf": {
      "address_detail_pid": "GAVIC425413312",
      "confidence": 0.0,
      "postcode": "3084",
      "suburb": "HEIDELBERG",
      "distance_to_gnaf_m": 6.0,
      "coordinates": {
        "lat": -37.75749113,
        "lng": 145.0707883
      }
    },
    "source": "GHAR_Datasets - Police Locations.csv"
  },
  {
    "id": 736,
    "type": "police_station",
    "class": "POLICING FACILITY",
    "name": "HEYFIELD POLICE STATION",
    "status": "OPERATIONAL",
    "state": "VICTORIA",
    "suburb": "HEYFIELD",
    "postcode": "3858",
    "coordinates": {
      "lat": -37.98099348,
      "lng": 146.7856897
    },
    "address": "3 TEMPLE STREET",
    "gnaf": {
      "address_detail_pid": "GAVIC423850762",
      "confidence": 2.0,
      "postcode": "3858",
      "suburb": "HEYFIELD",
      "distance_to_gnaf_m": 6.0,
      "coordinates": {
        "lat": -37.98094978,
        "lng": 146.7856603
      }
    },
    "source": "GHAR_Datasets - Police Locations.csv"
  },
  {
    "id": 742,
    "type": "police_station",
    "class": "POLICING FACILITY",
    "name": "HEYWOOD POLICE STATION",
    "status": "OPERATIONAL",
    "state": "VICTORIA",
    "suburb": "HEYWOOD",
    "postcode": "3304",
    "coordinates": {
      "lat": -38.13349696,
      "lng": 141.6289629
    },
    "address": "9 LINDSAY STREET",
    "gnaf": {
      "address_detail_pid": "GAVIC414178280",
      "confidence": 1.0,
      "postcode": "3304",
      "suburb": "HEYWOOD",
      "distance_to_gnaf_m": 0.0,
      "coordinates": {
        "lat": -38.13349695,
        "lng": 141.6289629
      }
    },
    "source": "GHAR_Datasets - Police Locations.csv"
  },
  {
    "id": 754,
    "type": "police_station",
    "class": "POLICING FACILITY",
    "name": "HOPETOUN POLICE STATION",
    "status": "OPERATIONAL",
    "state": "VICTORIA",
    "suburb": "HOPETOUN",
    "postcode": "3396",
    "coordinates": {
      "lat": -35.72928703,
      "lng": 142.3647004
    },
    "address": "19 DENNYS STREET",
    "gnaf": {
      "address_detail_pid": "GAVIC424080230",
      "confidence": 1.0,
      "postcode": "3396",
      "suburb": "HOPETOUN",
      "distance_to_gnaf_m": 0.0,
      "coordinates": {
        "lat": -35.72928703,
        "lng": 142.3647004
      }
    },
    "source": "GHAR_Datasets - Police Locations.csv"
  },
  {
    "id": 759,
    "type": "police_station",
    "class": "POLICING FACILITY",
    "name": "HORSHAM POLICE STATION",
    "status": "OPERATIONAL",
    "state": "VICTORIA",
    "suburb": "HORSHAM",
    "postcode": "3400",
    "coordinates": {
      "lat": -36.71406741,
      "lng": 142.2012219
    },
    "address": "20 ROBERTS AVENUE",
    "gnaf": {
      "address_detail_pid": "GAVIC420576232",
      "confidence": 1.0,
      "postcode": "3400",
      "suburb": "HORSHAM",
      "distance_to_gnaf_m": 0.0,
      "coordinates": {
        "lat": -36.7140674,
        "lng": 142.2012219
      }
    },
    "source": "GHAR_Datasets - Police Locations.csv"
  },
  {
    "id": 763,
    "type": "police_station",
    "class": "POLICING FACILITY",
    "name": "MOUNT HOTHAM POLICE STATION",
    "status": "OPERATIONAL",
    "state": "VICTORIA",
    "suburb": "HOTHAM HEIGHTS",
    "postcode": "3741",
    "coordinates": {
      "lat": -36.99206968,
      "lng": 147.1497997
    },
    "address": "89 GREAT ALPINE ROAD",
    "gnaf": {
      "address_detail_pid": "GAVIC425676098",
      "confidence": 1.0,
      "postcode": "3741",
      "suburb": "HOTHAM HEIGHTS",
      "distance_to_gnaf_m": 25.0,
      "coordinates": {
        "lat": -36.99199897,
        "lng": 147.149535
      }
    },
    "source": "GHAR_Datasets - Police Locations.csv"
  },
  {
    "id": 769,
    "type": "police_station",
    "class": "POLICING FACILITY",
    "name": "HURSTBRIDGE POLICE STATION",
    "status": "OPERATIONAL",
    "state": "VICTORIA",
    "suburb": "HURSTBRIDGE",
    "postcode": "3099",
    "coordinates": {
      "lat": -37.63998203,
      "lng": 145.1928361
    },
    "address": "790 HEIDELBERG-KINGLAKE ROAD",
    "gnaf": {
      "address_detail_pid": "GAVIC413290270",
      "confidence": 1.0,
      "postcode": "3099",
      "suburb": "HURSTBRIDGE",
      "distance_to_gnaf_m": 0.0,
      "coordinates": {
        "lat": -37.63998203,
        "lng": 145.1928361
      }
    },
    "source": "GHAR_Datasets - Police Locations.csv"
  },
  {
    "id": 772,
    "type": "police_station",
    "class": "POLICING FACILITY",
    "name": "INGLEWOOD POLICE STATION",
    "status": "OPERATIONAL",
    "state": "VICTORIA",
    "suburb": "INGLEWOOD",
    "postcode": "3517",
    "coordinates": {
      "lat": -36.57572425,
      "lng": 143.8700544
    },
    "address": "89 GRANT STREET",
    "gnaf": {
      "address_detail_pid": "GAVIC424081895",
      "confidence": 1.0,
      "postcode": "3517",
      "suburb": "INGLEWOOD",
      "distance_to_gnaf_m": 0.0,
      "coordinates": {
        "lat": -36.57572489,
        "lng": 143.8700554
      }
    },
    "source": "GHAR_Datasets - Police Locations.csv"
  },
  {
    "id": 776,
    "type": "police_station",
    "class": "POLICING FACILITY",
    "name": "INVERLEIGH POLICE STATION",
    "status": "OPERATIONAL",
    "state": "VICTORIA",
    "suburb": "INVERLEIGH",
    "postcode": "3321",
    "coordinates": {
      "lat": -38.10157586,
      "lng": 144.0506042
    },
    "address": "92 HIGH STREET",
    "gnaf": {
      "address_detail_pid": "GAVIC425735348",
      "confidence": 1.0,
      "postcode": "3321",
      "suburb": "INVERLEIGH",
      "distance_to_gnaf_m": 8.0,
      "coordinates": {
        "lat": -38.10154505,
        "lng": 144.0505177
      }
    },
    "source": "GHAR_Datasets - Police Locations.csv"
  },
  {
    "id": 780,
    "type": "police_station",
    "class": "POLICING FACILITY",
    "name": "INVERLOCH POLICE STATION",
    "status": "OPERATIONAL",
    "state": "VICTORIA",
    "suburb": "INVERLOCH",
    "postcode": "3996",
    "coordinates": {
      "lat": -38.63111969,
      "lng": 145.7274697
    },
    "address": "13 BAYVIEW AVENUE",
    "gnaf": {
      "address_detail_pid": "GAVIC420361118",
      "confidence": -1.0,
      "postcode": "3996",
      "suburb": "INVERLOCH",
      "distance_to_gnaf_m": 21.0,
      "coordinates": {
        "lat": -38.63093769,
        "lng": 145.7275256
      }
    },
    "source": "GHAR_Datasets - Police Locations.csv"
  },
  {
    "id": 782,
    "type": "police_station",
    "class": "POLICING FACILITY",
    "name": "BALLARAT NORTH POLICE STATION",
    "status": "OPERATIONAL",
    "state": "VICTORIA",
    "suburb": "INVERMAY PARK",
    "postcode": "3350",
    "coordinates": {
      "lat": -37.53577365,
      "lng": 143.8551771
    },
    "address": "734 NORMAN STREET",
    "gnaf": {
      "address_detail_pid": "GAVIC424730018",
      "confidence": 1.0,
      "postcode": "3350",
      "suburb": "INVERMAY PARK",
      "distance_to_gnaf_m": 0.0,
      "coordinates": {
        "lat": -37.53577365,
        "lng": 143.8551771
      }
    },
    "source": "GHAR_Datasets - Police Locations.csv"
  },
  {
    "id": 788,
    "type": "police_station",
    "class": "POLICING FACILITY",
    "name": "JAMIESON POLICE STATION",
    "status": "OPERATIONAL",
    "state": "VICTORIA",
    "suburb": "JAMIESON",
    "postcode": "3723",
    "coordinates": {
      "lat": -37.30333476,
      "lng": 146.1381824
    },
    "address": "22 NASH STREET",
    "gnaf": {
      "address_detail_pid": "GAVIC411644293",
      "confidence": 2.0,
      "postcode": "3723",
      "suburb": "JAMIESON",
      "distance_to_gnaf_m": 0.0,
      "coordinates": {
        "lat": -37.30333475,
        "lng": 146.1381824
      }
    },
    "source": "GHAR_Datasets - Police Locations.csv"
  },
  {
    "id": 792,
    "type": "police_station",
    "class": "POLICING FACILITY",
    "name": "JEPARIT POLICE STATION",
    "status": "OPERATIONAL",
    "state": "VICTORIA",
    "suburb": "JEPARIT",
    "postcode": "3423",
    "coordinates": {
      "lat": -36.14334507,
      "lng": 141.9887765
    },
    "address": "12 HINDMARSH STREET",
    "gnaf": {
      "address_detail_pid": "GAVIC420691861",
      "confidence": 2.0,
      "postcode": "3423",
      "suburb": "JEPARIT",
      "distance_to_gnaf_m": 0.0,
      "coordinates": {
        "lat": -36.14334506,
        "lng": 141.9887765
      }
    },
    "source": "GHAR_Datasets - Police Locations.csv"
  },
  {
    "id": 812,
    "type": "police_station",
    "class": "POLICING FACILITY",
    "name": "KANIVA POLICE STATION",
    "status": "OPERATIONAL",
    "state": "VICTORIA",
    "suburb": "KANIVA",
    "postcode": "3419",
    "coordinates": {
      "lat": -36.37887,
      "lng": 141.2420549
    },
    "address": "83 COMMERCIAL STREET",
    "gnaf": {
      "address_detail_pid": "GAVIC419967954",
      "confidence": 2.0,
      "postcode": "3419",
      "suburb": "KANIVA",
      "distance_to_gnaf_m": 0.0,
      "coordinates": {
        "lat": -36.37887,
        "lng": 141.2420549
      }
    },
    "source": "GHAR_Datasets - Police Locations.csv"
  },
  {
    "id": 816,
    "type": "police_station",
    "class": "POLICING FACILITY",
    "name": "KATAMATITE POLICE STATION",
    "status": "OPERATIONAL",
    "state": "VICTORIA",
    "suburb": "KATAMATITE",
    "postcode": "3649",
    "coordinates": {
      "lat": -36.07934439,
      "lng": 145.688837
    },
    "address": "34-36 BEEK STREET",
    "gnaf": {
      "address_detail_pid": "GAVIC424576996",
      "confidence": 1.0,
      "postcode": "3649",
      "suburb": "KATAMATITE",
      "distance_to_gnaf_m": 23.0,
      "coordinates": {
        "lat": -36.07913341,
        "lng": 145.6888328
      }
    },
    "source": "GHAR_Datasets - Police Locations.csv"
  },
  {
    "id": 821,
    "type": "police_station",
    "class": "POLICING FACILITY",
    "name": "KEILOR DOWNS POLICE STATION",
    "status": "OPERATIONAL",
    "state": "VICTORIA",
    "suburb": "KEILOR DOWNS",
    "postcode": "3038",
    "coordinates": {
      "lat": -37.72382812,
      "lng": 144.8075012
    },
    "address": "1 COPERNICUS WAY",
    "gnaf": {
      "address_detail_pid": "GAVIC412929482",
      "confidence": 1.0,
      "postcode": "3038",
      "suburb": "KEILOR DOWNS",
      "distance_to_gnaf_m": 0.0,
      "coordinates": {
        "lat": -37.72382813,
        "lng": 144.8075012
      }
    },
    "source": "GHAR_Datasets - Police Locations.csv"
  },
  {
    "id": 830,
    "type": "police_station",
    "class": "POLICING FACILITY",
    "name": "KERANG POLICE STATION",
    "status": "OPERATIONAL",
    "state": "VICTORIA",
    "suburb": "KERANG",
    "postcode": "3579",
    "coordinates": {
      "lat": -35.73390676,
      "lng": 143.9215075
    },
    "address": "16 ALBERT STREET",
    "gnaf": {
      "address_detail_pid": "GAVIC421719634",
      "confidence": 1.0,
      "postcode": "3579",
      "suburb": "KERANG",
      "distance_to_gnaf_m": 0.0,
      "coordinates": {
        "lat": -35.73390362,
        "lng": 143.9215075
      }
    },
    "source": "GHAR_Datasets - Police Locations.csv"
  },
  {
    "id": 835,
    "type": "police_station",
    "class": "POLICING FACILITY",
    "name": "BOROONDARA POLICE STATION",
    "status": "OPERATIONAL",
    "state": "VICTORIA",
    "suburb": "KEW",
    "postcode": "3101",
    "coordinates": {
      "lat": -37.7997109,
      "lng": 145.0520295
    },
    "address": "34 HARP ROAD",
    "gnaf": {
      "address_detail_pid": "GAVIC420127024",
      "confidence": 2.0,
      "postcode": "3101",
      "suburb": "KEW",
      "distance_to_gnaf_m": 0.0,
      "coordinates": {
        "lat": -37.7997109,
        "lng": 145.0520295
      }
    },
    "source": "GHAR_Datasets - Police Locations.csv"
  },
  {
    "id": 842,
    "type": "police_station",
    "class": "POLICING FACILITY",
    "name": "KILMORE POLICE STATION",
    "status": "OPERATIONAL",
    "state": "VICTORIA",
    "suburb": "KILMORE",
    "postcode": "3764",
    "coordinates": {
      "lat": -37.30706434,
      "lng": 144.9498551
    },
    "address": "111 POWLETT STREET",
    "gnaf": {
      "address_detail_pid": "GAVIC424453040",
      "confidence": 1.0,
      "postcode": "3764",
      "suburb": "KILMORE",
      "distance_to_gnaf_m": 0.0,
      "coordinates": {
        "lat": -37.30706434,
        "lng": 144.9498551
      }
    },
    "source": "GHAR_Datasets - Police Locations.csv"
  },
  {
    "id": 847,
    "type": "police_station",
    "class": "POLICING FACILITY",
    "name": "KINGLAKE POLICE STATION",
    "status": "OPERATIONAL",
    "state": "VICTORIA",
    "suburb": "KINGLAKE",
    "postcode": "3763",
    "coordinates": {
      "lat": -37.53153138,
      "lng": 145.3404877
    },
    "address": "15 WHITTLESEA-KINGLAKE ROAD",
    "gnaf": {
      "address_detail_pid": "GAVIC424509319",
      "confidence": 0.0,
      "postcode": "3763",
      "suburb": "KINGLAKE",
      "distance_to_gnaf_m": 0.0,
      "coordinates": {
        "lat": -37.53153138,
        "lng": 145.3404877
      }
    },
    "source": "GHAR_Datasets - Police Locations.csv"
  },
  {
    "id": 860,
    "type": "police_station",
    "class": "POLICING FACILITY",
    "name": "KOO WEE RUP POLICE STATION",
    "status": "OPERATIONAL",
    "state": "VICTORIA",
    "suburb": "KOO WEE RUP",
    "postcode": "3981",
    "coordinates": {
      "lat": -38.20023541,
      "lng": 145.4891053
    },
    "address": "260 ROSSITER ROAD",
    "gnaf": {
      "address_detail_pid": "GAVIC420023237",
      "confidence": 2.0,
      "postcode": "3981",
      "suburb": "KOO WEE RUP",
      "distance_to_gnaf_m": 0.0,
      "coordinates": {
        "lat": -38.200235,
        "lng": 145.489105
      }
    },
    "source": "GHAR_Datasets - Police Locations.csv"
  },
  {
    "id": 863,
    "type": "police_station",
    "class": "POLICING FACILITY",
    "name": "KOONDROOK POLICE STATION",
    "status": "OPERATIONAL",
    "state": "VICTORIA",
    "suburb": "KOONDROOK",
    "postcode": "3580",
    "coordinates": {
      "lat": -35.6446558,
      "lng": 144.131379
    },
    "address": "40 GUNBOWER PARADE",
    "gnaf": {
      "address_detail_pid": "GAVIC419822537",
      "confidence": 2.0,
      "postcode": "3580",
      "suburb": "KOONDROOK",
      "distance_to_gnaf_m": 84.0,
      "coordinates": {
        "lat": -35.644785,
        "lng": 144.13229
      }
    },
    "source": "GHAR_Datasets - Police Locations.csv"
  },
  {
    "id": 868,
    "type": "police_station",
    "class": "POLICING FACILITY",
    "name": "KOROIT POLICE STATION",
    "status": "OPERATIONAL",
    "state": "VICTORIA",
    "suburb": "KOROIT",
    "postcode": "3282",
    "coordinates": {
      "lat": -38.29259685,
      "lng": 142.3678757
    },
    "address": "97 COMMERCIAL ROAD",
    "gnaf": {
      "address_detail_pid": "GAVIC424444056",
      "confidence": 2.0,
      "postcode": "3282",
      "suburb": "KOROIT",
      "distance_to_gnaf_m": 24.0,
      "coordinates": {
        "lat": -38.29237926,
        "lng": 142.3678854
      }
    },
    "source": "GHAR_Datasets - Police Locations.csv"
  },
  {
    "id": 871,
    "type": "police_station",
    "class": "POLICING FACILITY",
    "name": "KORUMBURRA POLICE STATION",
    "status": "OPERATIONAL",
    "state": "VICTORIA",
    "suburb": "KORUMBURRA",
    "postcode": "3950",
    "coordinates": {
      "lat": -38.43457558,
      "lng": 145.8243117
    },
    "address": "24 BRIDGE STREET",
    "gnaf": {
      "address_detail_pid": "GAVIC424668160",
      "confidence": 0.0,
      "postcode": "3950",
      "suburb": "KORUMBURRA",
      "distance_to_gnaf_m": 14.0,
      "coordinates": {
        "lat": -38.43468263,
        "lng": 145.8242187
      }
    },
    "source": "GHAR_Datasets - Police Locations.csv"
  },
  {
    "id": 875,
    "type": "police_station",
    "class": "POLICING FACILITY",
    "name": "KYABRAM POLICE STATION",
    "status": "OPERATIONAL",
    "state": "VICTORIA",
    "suburb": "KYABRAM",
    "postcode": "3620",
    "coordinates": {
      "lat": -36.31369564,
      "lng": 145.0525638
    },
    "address": "304 ALLAN STREET",
    "gnaf": {
      "address_detail_pid": "GAVIC420595217",
      "confidence": 0.0,
      "postcode": "3620",
      "suburb": "KYABRAM",
      "distance_to_gnaf_m": 0.0,
      "coordinates": {
        "lat": -36.31369564,
        "lng": 145.0525638
      }
    },
    "source": "GHAR_Datasets - Police Locations.csv"
  },
  {
    "id": 878,
    "type": "police_station",
    "class": "POLICING FACILITY",
    "name": "KYNETON POLICE STATION",
    "status": "OPERATIONAL",
    "state": "VICTORIA",
    "suburb": "KYNETON",
    "postcode": "3444",
    "coordinates": {
      "lat": -37.24767423,
      "lng": 144.4517434
    },
    "address": "16-22 JENNINGS STREET",
    "gnaf": {
      "address_detail_pid": "GAVIC425367193",
      "confidence": 0.0,
      "postcode": "3444",
      "suburb": "KYNETON",
      "distance_to_gnaf_m": 4.0,
      "coordinates": {
        "lat": -37.24768855,
        "lng": 144.4517815
      }
    },
    "source": "GHAR_Datasets - Police Locations.csv"
  },
  {
    "id": 889,
    "type": "police_station",
    "class": "POLICING FACILITY",
    "name": "LAKE BOGA POLICE STATION",
    "status": "OPERATIONAL",
    "state": "VICTORIA",
    "suburb": "LAKE BOGA",
    "postcode": "3584",
    "coordinates": {
      "lat": -35.45954934,
      "lng": 143.6316812
    },
    "address": "124 MURRAY VALLEY HIGHWAY",
    "gnaf": {
      "address_detail_pid": "GAVIC424759113",
      "confidence": 0.0,
      "postcode": "3584",
      "suburb": "LAKE BOGA",
      "distance_to_gnaf_m": 0.0,
      "coordinates": {
        "lat": -35.45954934,
        "lng": 143.6316813
      }
    },
    "source": "GHAR_Datasets - Police Locations.csv"
  },
  {
    "id": 892,
    "type": "police_station",
    "class": "POLICING FACILITY",
    "name": "LAKE BOLAC POLICE STATION",
    "status": "OPERATIONAL",
    "state": "VICTORIA",
    "suburb": "LAKE BOLAC",
    "postcode": "3351",
    "coordinates": {
      "lat": -37.71144268,
      "lng": 142.8412663
    },
    "address": "200 MONTGOMERY STREET",
    "gnaf": {
      "address_detail_pid": "GAVIC420435044",
      "confidence": 0.0,
      "postcode": "3351",
      "suburb": "LAKE BOLAC",
      "distance_to_gnaf_m": 0.0,
      "coordinates": {
        "lat": -37.71144268,
        "lng": 142.8412663
      }
    },